{
"type": "FeatureCollection",
"name": "XYsite",
"crs": { "type": "name", "properties": { "name": "urn:ogc:def:crs:OGC:1.3:CRS84" } },
"features": [
{ "type": "Feature", "properties": { "site_id": 346, "name": "LUIGE", "lon": 24.77665278, "lat": 59.34361111, "ONIMI": "Kiili vald", "OKOOD": "0304", "MNIMI": "Harju maakond", "MKOOD": "0037", "lau2": 304, "lon_cntr": 24.849682094, "lat_cntr": 59.289084905499998 }, "geometry": { "type": "Point", "coordinates": [ 24.77665, 59.34361 ] } },
{ "type": "Feature", "properties": { "site_id": 225, "name": "KIIMA", "lon": 24.84833056, "lat": 59.31415833, "ONIMI": "Kiili vald", "OKOOD": "0304", "MNIMI": "Harju maakond", "MKOOD": "0037", "lau2": 304, "lon_cntr": 24.849682094, "lat_cntr": 59.289084905499998 }, "geometry": { "type": "Point", "coordinates": [ 24.84833, 59.31416 ] } },
{ "type": "Feature", "properties": { "site_id": 224, "name": "KIILI", "lon": 24.83505278, "lat": 59.30666667, "ONIMI": "Kiili vald", "OKOOD": "0304", "MNIMI": "Harju maakond", "MKOOD": "0037", "lau2": 304, "lon_cntr": 24.849682094, "lat_cntr": 59.289084905499998 }, "geometry": { "type": "Point", "coordinates": [ 24.83505, 59.30667 ] } },
{ "type": "Feature", "properties": { "site_id": 347, "name": "LUIGQ", "lon": 24.77277778, "lat": 59.32528056, "ONIMI": "Kiili vald", "OKOOD": "0304", "MNIMI": "Harju maakond", "MKOOD": "0037", "lau2": 304, "lon_cntr": 24.849682094, "lat_cntr": 59.289084905499998 }, "geometry": { "type": "Point", "coordinates": [ 24.77278, 59.32528 ] } },
{ "type": "Feature", "properties": { "site_id": 899, "name": "PAEKN", "lon": 24.83417222, "lat": 59.26249722, "ONIMI": "Kiili vald", "OKOOD": "0304", "MNIMI": "Harju maakond", "MKOOD": "0037", "lau2": 304, "lon_cntr": 24.849682094, "lat_cntr": 59.289084905499998 }, "geometry": { "type": "Point", "coordinates": [ 24.83417, 59.2625 ] } },
{ "type": "Feature", "properties": { "site_id": 708, "name": "UHTNA", "lon": 26.58443889, "lat": 59.40694167, "ONIMI": "Sõmeru vald", "OKOOD": "0770", "MNIMI": "Lääne-Viru maakond", "MKOOD": "0059", "lau2": 770, "lon_cntr": 26.493966132800001, "lat_cntr": 59.397459308999998 }, "geometry": { "type": "Point", "coordinates": [ 26.58444, 59.40694 ] } },
{ "type": "Feature", "properties": { "site_id": 410, "name": "NAPI", "lon": 26.39778333, "lat": 59.36778333, "ONIMI": "Sõmeru vald", "OKOOD": "0770", "MNIMI": "Lääne-Viru maakond", "MKOOD": "0059", "lau2": 770, "lon_cntr": 26.493966132800001, "lat_cntr": 59.397459308999998 }, "geometry": { "type": "Point", "coordinates": [ 26.39778, 59.36778 ] } },
{ "type": "Feature", "properties": { "site_id": 448, "name": "PAIKQ", "lon": 24.64472222, "lat": 58.37638333, "ONIMI": "Paikuse vald", "OKOOD": "0568", "MNIMI": "Pärnu maakond", "MKOOD": "0067", "lau2": 568, "lon_cntr": 24.776663209599999, "lat_cntr": 58.364708997100003 }, "geometry": { "type": "Point", "coordinates": [ 24.64472, 58.37638 ] } },
{ "type": "Feature", "properties": { "site_id": 610, "name": "SMETS", "lon": 24.66415556, "lat": 58.35999444, "ONIMI": "Paikuse vald", "OKOOD": "0568", "MNIMI": "Pärnu maakond", "MKOOD": "0067", "lau2": 568, "lon_cntr": 24.776663209599999, "lat_cntr": 58.364708997100003 }, "geometry": { "type": "Point", "coordinates": [ 24.66416, 58.35999 ] } },
{ "type": "Feature", "properties": { "site_id": 966, "name": "PASIL", "lon": 24.622494, "lat": 58.346669, "ONIMI": "Paikuse vald", "OKOOD": "0568", "MNIMI": "Pärnu maakond", "MKOOD": "0067", "lau2": 568, "lon_cntr": 24.776663209599999, "lat_cntr": 58.364708997100003 }, "geometry": { "type": "Point", "coordinates": [ 24.62249, 58.34667 ] } },
{ "type": "Feature", "properties": { "site_id": 416, "name": "NEEME", "lon": 25.16435556, "lat": 59.52916667, "ONIMI": "Jõelähtme vald", "OKOOD": "0245", "MNIMI": "Harju maakond", "MKOOD": "0037", "lau2": 245, "lon_cntr": 25.135632404700001, "lat_cntr": 59.447713339700002 }, "geometry": { "type": "Point", "coordinates": [ 25.16436, 59.52917 ] } },
{ "type": "Feature", "properties": { "site_id": 946, "name": "HAPSE", "lon": 25.2925, "lat": 59.49694444, "ONIMI": "Jõelähtme vald", "OKOOD": "0245", "MNIMI": "Harju maakond", "MKOOD": "0037", "lau2": 245, "lon_cntr": 25.135632404700001, "lat_cntr": 59.447713339700002 }, "geometry": { "type": "Point", "coordinates": [ 25.2925, 59.49694 ] } },
{ "type": "Feature", "properties": { "site_id": 138, "name": "JAGLQ", "lon": 25.19360556, "lat": 59.45694167, "ONIMI": "Jõelähtme vald", "OKOOD": "0245", "MNIMI": "Harju maakond", "MKOOD": "0037", "lau2": 245, "lon_cntr": 25.135632404700001, "lat_cntr": 59.447713339700002 }, "geometry": { "type": "Point", "coordinates": [ 25.19361, 59.45694 ] } },
{ "type": "Feature", "properties": { "site_id": 146, "name": "JOELA", "lon": 25.14500556, "lat": 59.43971944, "ONIMI": "Jõelähtme vald", "OKOOD": "0245", "MNIMI": "Harju maakond", "MKOOD": "0037", "lau2": 245, "lon_cntr": 25.135632404700001, "lat_cntr": 59.447713339700002 }, "geometry": { "type": "Point", "coordinates": [ 25.14501, 59.43972 ] } },
{ "type": "Feature", "properties": { "site_id": 597, "name": "SAVIR", "lon": 25.04710556, "lat": 59.49765833, "ONIMI": "Jõelähtme vald", "OKOOD": "0245", "MNIMI": "Harju maakond", "MKOOD": "0037", "lau2": 245, "lon_cntr": 25.135632404700001, "lat_cntr": 59.447713339700002 }, "geometry": { "type": "Point", "coordinates": [ 25.04711, 59.49766 ] } },
{ "type": "Feature", "properties": { "site_id": 1021, "name": "REBAL", "lon": 25.06055556, "lat": 59.45444444, "ONIMI": "Jõelähtme vald", "OKOOD": "0245", "MNIMI": "Harju maakond", "MKOOD": "0037", "lau2": 245, "lon_cntr": 25.135632404700001, "lat_cntr": 59.447713339700002 }, "geometry": { "type": "Point", "coordinates": [ 25.06056, 59.45444 ] } },
{ "type": "Feature", "properties": { "site_id": 267, "name": "KOSTI", "lon": 25.09638889, "lat": 59.42916667, "ONIMI": "Jõelähtme vald", "OKOOD": "0245", "MNIMI": "Harju maakond", "MKOOD": "0037", "lau2": 245, "lon_cntr": 25.135632404700001, "lat_cntr": 59.447713339700002 }, "geometry": { "type": "Point", "coordinates": [ 25.09639, 59.42917 ] } },
{ "type": "Feature", "properties": { "site_id": 582, "name": "SAHAL", "lon": 24.94472222, "lat": 59.425, "ONIMI": "Jõelähtme vald", "OKOOD": "0245", "MNIMI": "Harju maakond", "MKOOD": "0037", "lau2": 245, "lon_cntr": 25.135632404700001, "lat_cntr": 59.447713339700002 }, "geometry": { "type": "Point", "coordinates": [ 24.94472, 59.425 ] } },
{ "type": "Feature", "properties": { "site_id": 1048, "name": "LOOVT", "lon": 24.94886667, "lat": 59.432025, "ONIMI": "Jõelähtme vald", "OKOOD": "0245", "MNIMI": "Harju maakond", "MKOOD": "0037", "lau2": 245, "lon_cntr": 25.135632404700001, "lat_cntr": 59.447713339700002 }, "geometry": { "type": "Point", "coordinates": [ 24.94887, 59.43203 ] } },
{ "type": "Feature", "properties": { "site_id": 569, "name": "ROOSN", "lon": 25.72943333, "lat": 59.01804722, "ONIMI": "Roosna-Alliku vald", "OKOOD": "0684", "MNIMI": "Järva maakond", "MKOOD": "0051", "lau2": 684, "lon_cntr": 25.715446805500001, "lat_cntr": 59.008999984500001 }, "geometry": { "type": "Point", "coordinates": [ 25.72943, 59.01805 ] } },
{ "type": "Feature", "properties": { "site_id": 869, "name": "ORU", "lon": 24.98166667, "lat": 59.1925, "ONIMI": "Kose vald", "OKOOD": "0337", "MNIMI": "Harju maakond", "MKOOD": "0037", "lau2": 337, "lon_cntr": 25.1066440122, "lat_cntr": 59.193504692399998 }, "geometry": { "type": "Point", "coordinates": [ 24.98167, 59.1925 ] } },
{ "type": "Feature", "properties": { "site_id": 266, "name": "KOSE", "lon": 25.14804444, "lat": 59.18721667, "ONIMI": "Kose vald", "OKOOD": "0337", "MNIMI": "Harju maakond", "MKOOD": "0037", "lau2": 337, "lon_cntr": 25.1066440122, "lat_cntr": 59.193504692399998 }, "geometry": { "type": "Point", "coordinates": [ 25.14804, 59.18722 ] } },
{ "type": "Feature", "properties": { "site_id": 1029, "name": "VARDJ", "lon": 25.20722222, "lat": 59.17, "ONIMI": "Kose vald", "OKOOD": "0337", "MNIMI": "Harju maakond", "MKOOD": "0037", "lau2": 337, "lon_cntr": 25.1066440122, "lat_cntr": 59.193504692399998 }, "geometry": { "type": "Point", "coordinates": [ 25.20722, 59.17 ] } },
{ "type": "Feature", "properties": { "site_id": 5, "name": "AEGVI", "lon": 25.60415833, "lat": 59.29027778, "ONIMI": "Aegviidu vald", "OKOOD": "0112", "MNIMI": "Harju maakond", "MKOOD": "0037", "lau2": 112, "lon_cntr": 25.6202148665, "lat_cntr": 59.279460682200003 }, "geometry": { "type": "Point", "coordinates": [ 25.60416, 59.29028 ] } },
{ "type": "Feature", "properties": { "site_id": 50, "name": "BODIL", "lon": 25.08176667, "lat": 59.35921667, "ONIMI": "Raasiku vald", "OKOOD": "0651", "MNIMI": "Harju maakond", "MKOOD": "0037", "lau2": 651, "lon_cntr": 25.1319450905, "lat_cntr": 59.324269441299997 }, "geometry": { "type": "Point", "coordinates": [ 25.08177, 59.35922 ] } },
{ "type": "Feature", "properties": { "site_id": 522, "name": "RAASI", "lon": 25.17776667, "lat": 59.365, "ONIMI": "Raasiku vald", "OKOOD": "0651", "MNIMI": "Harju maakond", "MKOOD": "0037", "lau2": 651, "lon_cntr": 25.1319450905, "lat_cntr": 59.324269441299997 }, "geometry": { "type": "Point", "coordinates": [ 25.17777, 59.365 ] } },
{ "type": "Feature", "properties": { "site_id": 817, "name": "AKYLQ", "lon": 25.04999167, "lat": 59.36666667, "ONIMI": "Raasiku vald", "OKOOD": "0651", "MNIMI": "Harju maakond", "MKOOD": "0037", "lau2": 651, "lon_cntr": 25.1319450905, "lat_cntr": 59.324269441299997 }, "geometry": { "type": "Point", "coordinates": [ 25.04999, 59.36667 ] } },
{ "type": "Feature", "properties": { "site_id": 695, "name": "TUDLI", "lon": 27.07109444, "lat": 59.03388333, "ONIMI": "Tudulinna vald", "OKOOD": "0815", "MNIMI": "Ida-Viru maakond", "MKOOD": "0044", "lau2": 815, "lon_cntr": 27.0172481424, "lat_cntr": 59.076745540099999 }, "geometry": { "type": "Point", "coordinates": [ 27.07109, 59.03388 ] } },
{ "type": "Feature", "properties": { "site_id": 604, "name": "SILLQ", "lon": 27.77313889, "lat": 59.38944167, "ONIMI": "Vaivara vald", "OKOOD": "0851", "MNIMI": "Ida-Viru maakond", "MKOOD": "0044", "lau2": 851, "lon_cntr": 27.882779667699999, "lat_cntr": 59.331780322999997 }, "geometry": { "type": "Point", "coordinates": [ 27.77314, 59.38944 ] } },
{ "type": "Feature", "properties": { "site_id": 60, "name": "EESEJ", "lon": 27.90785278, "lat": 59.27314167, "ONIMI": "Vaivara vald", "OKOOD": "0851", "MNIMI": "Ida-Viru maakond", "MKOOD": "0044", "lau2": 851, "lon_cntr": 27.882779667699999, "lat_cntr": 59.331780322999997 }, "geometry": { "type": "Point", "coordinates": [ 27.90785, 59.27314 ] } },
{ "type": "Feature", "properties": { "site_id": 780, "name": "VODAV", "lon": 28.06833056, "lat": 59.40526944, "ONIMI": "Vaivara vald", "OKOOD": "0851", "MNIMI": "Ida-Viru maakond", "MKOOD": "0044", "lau2": 851, "lon_cntr": 27.882779667699999, "lat_cntr": 59.331780322999997 }, "geometry": { "type": "Point", "coordinates": [ 28.06833, 59.40527 ] } },
{ "type": "Feature", "properties": { "site_id": 956, "name": "LAAGN", "lon": 27.97611111, "lat": 59.38972222, "ONIMI": "Vaivara vald", "OKOOD": "0851", "MNIMI": "Ida-Viru maakond", "MKOOD": "0044", "lau2": 851, "lon_cntr": 27.882779667699999, "lat_cntr": 59.331780322999997 }, "geometry": { "type": "Point", "coordinates": [ 27.97611, 59.38972 ] } },
{ "type": "Feature", "properties": { "site_id": 61, "name": "EESMA", "lon": 27.87630556, "lat": 59.26635556, "ONIMI": "Vaivara vald", "OKOOD": "0851", "MNIMI": "Ida-Viru maakond", "MKOOD": "0044", "lau2": 851, "lon_cntr": 27.882779667699999, "lat_cntr": 59.331780322999997 }, "geometry": { "type": "Point", "coordinates": [ 27.87631, 59.26636 ] } },
{ "type": "Feature", "properties": { "site_id": 876, "name": "VIIVI", "lon": 27.65667222, "lat": 59.33555556, "ONIMI": "Vaivara vald", "OKOOD": "0851", "MNIMI": "Ida-Viru maakond", "MKOOD": "0044", "lau2": 851, "lon_cntr": 27.882779667699999, "lat_cntr": 59.331780322999997 }, "geometry": { "type": "Point", "coordinates": [ 27.65667, 59.33556 ] } },
{ "type": "Feature", "properties": { "site_id": 993, "name": "VAIVA", "lon": 27.87444444, "lat": 59.37416667, "ONIMI": "Vaivara vald", "OKOOD": "0851", "MNIMI": "Ida-Viru maakond", "MKOOD": "0044", "lau2": 851, "lon_cntr": 27.882779667699999, "lat_cntr": 59.331780322999997 }, "geometry": { "type": "Point", "coordinates": [ 27.87444, 59.37417 ] } },
{ "type": "Feature", "properties": { "site_id": 338, "name": "LOKSA", "lon": 25.73473056, "lat": 59.585, "ONIMI": "Kuusalu vald", "OKOOD": "0353", "MNIMI": "Harju maakond", "MKOOD": "0037", "lau2": 353, "lon_cntr": 25.648283254700001, "lat_cntr": 59.459399625000003 }, "geometry": { "type": "Point", "coordinates": [ 25.73473, 59.585 ] } },
{ "type": "Feature", "properties": { "site_id": 252, "name": "KOLGA", "lon": 25.57555556, "lat": 59.48888889, "ONIMI": "Kuusalu vald", "OKOOD": "0353", "MNIMI": "Harju maakond", "MKOOD": "0037", "lau2": 353, "lon_cntr": 25.648283254700001, "lat_cntr": 59.459399625000003 }, "geometry": { "type": "Point", "coordinates": [ 25.57556, 59.48889 ] } },
{ "type": "Feature", "properties": { "site_id": 288, "name": "KUUSA", "lon": 25.42221667, "lat": 59.455275, "ONIMI": "Kuusalu vald", "OKOOD": "0353", "MNIMI": "Harju maakond", "MKOOD": "0037", "lau2": 353, "lon_cntr": 25.648283254700001, "lat_cntr": 59.459399625000003 }, "geometry": { "type": "Point", "coordinates": [ 25.42222, 59.45528 ] } },
{ "type": "Feature", "properties": { "site_id": 255, "name": "KONNU", "lon": 25.71194167, "lat": 59.45971667, "ONIMI": "Kuusalu vald", "OKOOD": "0353", "MNIMI": "Harju maakond", "MKOOD": "0037", "lau2": 353, "lon_cntr": 25.648283254700001, "lat_cntr": 59.459399625000003 }, "geometry": { "type": "Point", "coordinates": [ 25.71194, 59.45972 ] } },
{ "type": "Feature", "properties": { "site_id": 464, "name": "PARIS", "lon": 25.69971389, "lat": 59.64416667, "ONIMI": "Kuusalu vald", "OKOOD": "0353", "MNIMI": "Harju maakond", "MKOOD": "0037", "lau2": 353, "lon_cntr": 25.648283254700001, "lat_cntr": 59.459399625000003 }, "geometry": { "type": "Point", "coordinates": [ 25.69971, 59.64417 ] } },
{ "type": "Feature", "properties": { "site_id": 1, "name": "AABLA", "lon": 25.52110556, "lat": 59.58555556, "ONIMI": "Kuusalu vald", "OKOOD": "0353", "MNIMI": "Harju maakond", "MKOOD": "0037", "lau2": 353, "lon_cntr": 25.648283254700001, "lat_cntr": 59.459399625000003 }, "geometry": { "type": "Point", "coordinates": [ 25.52111, 59.58556 ] } },
{ "type": "Feature", "properties": { "site_id": 152, "name": "JUMIN", "lon": 25.50000556, "lat": 59.64583056, "ONIMI": "Kuusalu vald", "OKOOD": "0353", "MNIMI": "Harju maakond", "MKOOD": "0037", "lau2": 353, "lon_cntr": 25.648283254700001, "lat_cntr": 59.459399625000003 }, "geometry": { "type": "Point", "coordinates": [ 25.50001, 59.64583 ] } },
{ "type": "Feature", "properties": { "site_id": 159, "name": "KABER", "lon": 25.26499167, "lat": 59.47360833, "ONIMI": "Kuusalu vald", "OKOOD": "0353", "MNIMI": "Harju maakond", "MKOOD": "0037", "lau2": 353, "lon_cntr": 25.648283254700001, "lat_cntr": 59.459399625000003 }, "geometry": { "type": "Point", "coordinates": [ 25.26499, 59.47361 ] } },
{ "type": "Feature", "properties": { "site_id": 728, "name": "VALKL", "lon": 25.355, "lat": 59.47638056, "ONIMI": "Kuusalu vald", "OKOOD": "0353", "MNIMI": "Harju maakond", "MKOOD": "0037", "lau2": 353, "lon_cntr": 25.648283254700001, "lat_cntr": 59.459399625000003 }, "geometry": { "type": "Point", "coordinates": [ 25.355, 59.47638 ] } },
{ "type": "Feature", "properties": { "site_id": 573, "name": "RUMMU", "lon": 24.20352222, "lat": 59.23130556, "ONIMI": "Vasalemma vald", "OKOOD": "0868", "MNIMI": "Harju maakond", "MKOOD": "0037", "lau2": 868, "lon_cntr": 24.249805792699998, "lat_cntr": 59.237986405999997 }, "geometry": { "type": "Point", "coordinates": [ 24.20352, 59.23131 ] } },
{ "type": "Feature", "properties": { "site_id": 744, "name": "VASAL", "lon": 24.28193889, "lat": 59.23444167, "ONIMI": "Vasalemma vald", "OKOOD": "0868", "MNIMI": "Harju maakond", "MKOOD": "0037", "lau2": 868, "lon_cntr": 24.249805792699998, "lat_cntr": 59.237986405999997 }, "geometry": { "type": "Point", "coordinates": [ 24.28194, 59.23444 ] } },
{ "type": "Feature", "properties": { "site_id": 443, "name": "PADIS", "lon": 24.08635278, "lat": 59.21621667, "ONIMI": "Padise vald", "OKOOD": "0562", "MNIMI": "Harju maakond", "MKOOD": "0037", "lau2": 562, "lon_cntr": 23.981828204100001, "lat_cntr": 59.219525367499998 }, "geometry": { "type": "Point", "coordinates": [ 24.08635, 59.21622 ] } },
{ "type": "Feature", "properties": { "site_id": 123, "name": "HRIST", "lon": 24.00639167, "lat": 59.22750278, "ONIMI": "Padise vald", "OKOOD": "0562", "MNIMI": "Harju maakond", "MKOOD": "0037", "lau2": 562, "lon_cntr": 23.981828204100001, "lat_cntr": 59.219525367499998 }, "geometry": { "type": "Point", "coordinates": [ 24.00639, 59.2275 ] } },
{ "type": "Feature", "properties": { "site_id": 208, "name": "KEIBU", "lon": 23.77304444, "lat": 59.25833056, "ONIMI": "Padise vald", "OKOOD": "0562", "MNIMI": "Harju maakond", "MKOOD": "0037", "lau2": 562, "lon_cntr": 23.981828204100001, "lat_cntr": 59.219525367499998 }, "geometry": { "type": "Point", "coordinates": [ 23.77304, 59.25833 ] } },
{ "type": "Feature", "properties": { "site_id": 1033, "name": "VIHTM", "lon": 23.87611111, "lat": 59.25333333, "ONIMI": "Padise vald", "OKOOD": "0562", "MNIMI": "Harju maakond", "MKOOD": "0037", "lau2": 562, "lon_cntr": 23.981828204100001, "lat_cntr": 59.219525367499998 }, "geometry": { "type": "Point", "coordinates": [ 23.87611, 59.25333 ] } },
{ "type": "Feature", "properties": { "site_id": 276, "name": "KUKRU", "lon": 27.32888056, "lat": 59.38638333, "ONIMI": "Kohtla vald", "OKOOD": "0320", "MNIMI": "Ida-Viru maakond", "MKOOD": "0044", "lau2": 320, "lon_cntr": 27.288243553000001, "lat_cntr": 59.396091208199998 }, "geometry": { "type": "Point", "coordinates": [ 27.32888, 59.38638 ] } },
{ "type": "Feature", "properties": { "site_id": 43, "name": "AVINU", "lon": 26.87694722, "lat": 58.98776667, "ONIMI": "Avinurme vald", "OKOOD": "0164", "MNIMI": "Ida-Viru maakond", "MKOOD": "0044", "lau2": 164, "lon_cntr": 26.860505421700001, "lat_cntr": 58.974280927599999 }, "geometry": { "type": "Point", "coordinates": [ 26.87695, 58.98777 ] } },
{ "type": "Feature", "properties": { "site_id": 844, "name": "ADRAK", "lon": 26.80361667, "lat": 58.90472222, "ONIMI": "Avinurme vald", "OKOOD": "0164", "MNIMI": "Ida-Viru maakond", "MKOOD": "0044", "lau2": 164, "lon_cntr": 26.860505421700001, "lat_cntr": 58.974280927599999 }, "geometry": { "type": "Point", "coordinates": [ 26.80362, 58.90472 ] } },
{ "type": "Feature", "properties": { "site_id": 241, "name": "KNOMM", "lon": 27.19667778, "lat": 59.34808056, "ONIMI": "Kohtla-Nõmme vald", "OKOOD": "0323", "MNIMI": "Ida-Viru maakond", "MKOOD": "0044", "lau2": 323, "lon_cntr": 27.193152317300001, "lat_cntr": 59.356951497099999 }, "geometry": { "type": "Point", "coordinates": [ 27.19668, 59.34808 ] } },
{ "type": "Feature", "properties": { "site_id": 675, "name": "TOILA", "lon": 27.52943889, "lat": 59.41472222, "ONIMI": "Toila vald", "OKOOD": "0802", "MNIMI": "Ida-Viru maakond", "MKOOD": "0044", "lau2": 802, "lon_cntr": 27.589575319600002, "lat_cntr": 59.364818539600002 }, "geometry": { "type": "Point", "coordinates": [ 27.52944, 59.41472 ] } },
{ "type": "Feature", "properties": { "site_id": 873, "name": "TOISA", "lon": 27.51361389, "lat": 59.42528056, "ONIMI": "Toila vald", "OKOOD": "0802", "MNIMI": "Ida-Viru maakond", "MKOOD": "0044", "lau2": 802, "lon_cntr": 27.589575319600002, "lat_cntr": 59.364818539600002 }, "geometry": { "type": "Point", "coordinates": [ 27.51361, 59.42528 ] } },
{ "type": "Feature", "properties": { "site_id": 357, "name": "MAIDL", "lon": 27.02058333, "lat": 59.33536667, "ONIMI": "Maidla vald", "OKOOD": "0449", "MNIMI": "Ida-Viru maakond", "MKOOD": "0044", "lau2": 449, "lon_cntr": 27.028167369599998, "lat_cntr": 59.253938492400003 }, "geometry": { "type": "Point", "coordinates": [ 27.02058, 59.33537 ] } },
{ "type": "Feature", "properties": { "site_id": 35, "name": "ASERI", "lon": 26.84988056, "lat": 59.45638889, "ONIMI": "Aseri vald", "OKOOD": "0154", "MNIMI": "Ida-Viru maakond", "MKOOD": "0044", "lau2": 154, "lon_cntr": 26.8520754649, "lat_cntr": 59.434794216500002 }, "geometry": { "type": "Point", "coordinates": [ 26.84988, 59.45639 ] } },
{ "type": "Feature", "properties": { "site_id": 85, "name": "ESTON", "lon": 27.39220278, "lat": 59.20101389, "ONIMI": "Mäetaguse vald", "OKOOD": "0498", "MNIMI": "Ida-Viru maakond", "MKOOD": "0044", "lau2": 498, "lon_cntr": 27.264405678399999, "lat_cntr": 59.226039675499997 }, "geometry": { "type": "Point", "coordinates": [ 27.3922, 59.20101 ] } },
{ "type": "Feature", "properties": { "site_id": 355, "name": "MAETA", "lon": 27.29387778, "lat": 59.22805556, "ONIMI": "Mäetaguse vald", "OKOOD": "0498", "MNIMI": "Ida-Viru maakond", "MKOOD": "0044", "lau2": 498, "lon_cntr": 27.264405678399999, "lat_cntr": 59.226039675499997 }, "geometry": { "type": "Point", "coordinates": [ 27.29388, 59.22806 ] } },
{ "type": "Feature", "properties": { "site_id": 19, "name": "ALJOE", "lon": 27.43581944, "lat": 59.01360833, "ONIMI": "Alajõe vald", "OKOOD": "0122", "MNIMI": "Ida-Viru maakond", "MKOOD": "0044", "lau2": 122, "lon_cntr": 27.510761203400001, "lat_cntr": 59.026919970400002 }, "geometry": { "type": "Point", "coordinates": [ 27.43582, 59.01361 ] } },
{ "type": "Feature", "properties": { "site_id": 938, "name": "AAMAS", "lon": 27.15611111, "lat": 59.43527778, "ONIMI": "Lüganuse vald", "OKOOD": "0437", "MNIMI": "Ida-Viru maakond", "MKOOD": "0044", "lau2": 437, "lon_cntr": 27.0835259224, "lat_cntr": 59.400289414699998 }, "geometry": { "type": "Point", "coordinates": [ 27.15611, 59.43528 ] } },
{ "type": "Feature", "properties": { "site_id": 514, "name": "PURTS", "lon": 27.01766667, "lat": 59.41758056, "ONIMI": "Lüganuse vald", "OKOOD": "0437", "MNIMI": "Ida-Viru maakond", "MKOOD": "0044", "lau2": 437, "lon_cntr": 27.0835259224, "lat_cntr": 59.400289414699998 }, "geometry": { "type": "Point", "coordinates": [ 27.01767, 59.41758 ] } },
{ "type": "Feature", "properties": { "site_id": 33, "name": "ARKMA", "lon": 25.56871667, "lat": 58.66516667, "ONIMI": "Türi vald", "OKOOD": "0835", "MNIMI": "Järva maakond", "MKOOD": "0051", "lau2": 835, "lon_cntr": 25.438584029699999, "lat_cntr": 58.737414665800003 }, "geometry": { "type": "Point", "coordinates": [ 25.56872, 58.66517 ] } },
{ "type": "Feature", "properties": { "site_id": 232, "name": "KIRNA", "lon": 25.47389167, "lat": 58.84944167, "ONIMI": "Türi vald", "OKOOD": "0835", "MNIMI": "Järva maakond", "MKOOD": "0051", "lau2": 835, "lon_cntr": 25.438584029699999, "lat_cntr": 58.737414665800003 }, "geometry": { "type": "Point", "coordinates": [ 25.47389, 58.84944 ] } },
{ "type": "Feature", "properties": { "site_id": 427, "name": "OISU", "lon": 25.57026667, "lat": 58.75833056, "ONIMI": "Türi vald", "OKOOD": "0835", "MNIMI": "Järva maakond", "MKOOD": "0051", "lau2": 835, "lon_cntr": 25.438584029699999, "lat_cntr": 58.737414665800003 }, "geometry": { "type": "Point", "coordinates": [ 25.57027, 58.75833 ] } },
{ "type": "Feature", "properties": { "site_id": 705, "name": "TYREE", "lon": 25.42970556, "lat": 58.81904444, "ONIMI": "Türi vald", "OKOOD": "0835", "MNIMI": "Järva maakond", "MKOOD": "0051", "lau2": 835, "lon_cntr": 25.438584029699999, "lat_cntr": 58.737414665800003 }, "geometry": { "type": "Point", "coordinates": [ 25.42971, 58.81904 ] } },
{ "type": "Feature", "properties": { "site_id": 706, "name": "TYRI", "lon": 25.42954444, "lat": 58.79328056, "ONIMI": "Türi vald", "OKOOD": "0835", "MNIMI": "Järva maakond", "MKOOD": "0051", "lau2": 835, "lon_cntr": 25.438584029699999, "lat_cntr": 58.737414665800003 }, "geometry": { "type": "Point", "coordinates": [ 25.42954, 58.79328 ] } },
{ "type": "Feature", "properties": { "site_id": 919, "name": "TYTEH", "lon": 25.40777778, "lat": 58.8175, "ONIMI": "Türi vald", "OKOOD": "0835", "MNIMI": "Järva maakond", "MKOOD": "0051", "lau2": 835, "lon_cntr": 25.438584029699999, "lat_cntr": 58.737414665800003 }, "geometry": { "type": "Point", "coordinates": [ 25.40778, 58.8175 ] } },
{ "type": "Feature", "properties": { "site_id": 1050, "name": "KOLUM", "lon": 25.255, "lat": 58.79861111, "ONIMI": "Türi vald", "OKOOD": "0835", "MNIMI": "Järva maakond", "MKOOD": "0051", "lau2": 835, "lon_cntr": 25.438584029699999, "lat_cntr": 58.737414665800003 }, "geometry": { "type": "Point", "coordinates": [ 25.255, 58.79861 ] } },
{ "type": "Feature", "properties": { "site_id": 200, "name": "KAUKS", "lon": 27.23027222, "lat": 59.00389167, "ONIMI": "Iisaku vald", "OKOOD": "0224", "MNIMI": "Ida-Viru maakond", "MKOOD": "0044", "lau2": 224, "lon_cntr": 27.331001054400001, "lat_cntr": 59.0871125213 }, "geometry": { "type": "Point", "coordinates": [ 27.23027, 59.00389 ] } },
{ "type": "Feature", "properties": { "site_id": 130, "name": "IISAK", "lon": 27.31333056, "lat": 59.09305556, "ONIMI": "Iisaku vald", "OKOOD": "0224", "MNIMI": "Ida-Viru maakond", "MKOOD": "0044", "lau2": 224, "lon_cntr": 27.331001054400001, "lat_cntr": 59.0871125213 }, "geometry": { "type": "Point", "coordinates": [ 27.31333, 59.09306 ] } },
{ "type": "Feature", "properties": { "site_id": 336, "name": "LOHSU", "lon": 27.04815833, "lat": 58.94621667, "ONIMI": "Lohusuu vald", "OKOOD": "0420", "MNIMI": "Ida-Viru maakond", "MKOOD": "0044", "lau2": 420, "lon_cntr": 26.999284753200001, "lat_cntr": 58.946114579099998 }, "geometry": { "type": "Point", "coordinates": [ 27.04816, 58.94622 ] } },
{ "type": "Feature", "properties": { "site_id": 476, "name": "PERMI", "lon": 27.77609722, "lat": 59.08582778, "ONIMI": "Illuka vald", "OKOOD": "0229", "MNIMI": "Ida-Viru maakond", "MKOOD": "0044", "lau2": 229, "lon_cntr": 27.6299614086, "lat_cntr": 59.168101376599999 }, "geometry": { "type": "Point", "coordinates": [ 27.7761, 59.08583 ] } },
{ "type": "Feature", "properties": { "site_id": 282, "name": "KUREM", "lon": 27.54444167, "lat": 59.19305278, "ONIMI": "Illuka vald", "OKOOD": "0229", "MNIMI": "Ida-Viru maakond", "MKOOD": "0044", "lau2": 229, "lon_cntr": 27.6299614086, "lat_cntr": 59.168101376599999 }, "geometry": { "type": "Point", "coordinates": [ 27.54444, 59.19305 ] } },
{ "type": "Feature", "properties": { "site_id": 886, "name": "ILLUQ", "lon": 27.51305278, "lat": 59.23943889, "ONIMI": "Illuka vald", "OKOOD": "0229", "MNIMI": "Ida-Viru maakond", "MKOOD": "0044", "lau2": 229, "lon_cntr": 27.6299614086, "lat_cntr": 59.168101376599999 }, "geometry": { "type": "Point", "coordinates": [ 27.51305, 59.23944 ] } },
{ "type": "Feature", "properties": { "site_id": 248, "name": "KOIGI", "lon": 25.74635278, "lat": 58.82923056, "ONIMI": "Koigi vald", "OKOOD": "0325", "MNIMI": "Järva maakond", "MKOOD": "0051", "lau2": 325, "lon_cntr": 25.841471138300001, "lat_cntr": 58.836490405699998 }, "geometry": { "type": "Point", "coordinates": [ 25.74635, 58.82923 ] } },
{ "type": "Feature", "properties": { "site_id": 277, "name": "KULEE", "lon": 24.08804444, "lat": 58.88583056, "ONIMI": "Kullamaa vald", "OKOOD": "0342", "MNIMI": "Lääne maakond", "MKOOD": "0057", "lau2": 342, "lon_cntr": 24.043728977499999, "lat_cntr": 58.850647551999998 }, "geometry": { "type": "Point", "coordinates": [ 24.08804, 58.88583 ] } },
{ "type": "Feature", "properties": { "site_id": 278, "name": "KULLA", "lon": 24.04360833, "lat": 58.84139167, "ONIMI": "Kullamaa vald", "OKOOD": "0342", "MNIMI": "Lääne maakond", "MKOOD": "0057", "lau2": 342, "lon_cntr": 24.043728977499999, "lat_cntr": 58.850647551999998 }, "geometry": { "type": "Point", "coordinates": [ 24.04361, 58.84139 ] } },
{ "type": "Feature", "properties": { "site_id": 454, "name": "PALIV", "lon": 23.83500278, "lat": 58.96971667, "ONIMI": "Taebla vald", "OKOOD": "0776", "MNIMI": "Lääne maakond", "MKOOD": "0057", "lau2": 776, "lon_cntr": 23.830520529699999, "lat_cntr": 58.966911850199999 }, "geometry": { "type": "Point", "coordinates": [ 23.835, 58.96972 ] } },
{ "type": "Feature", "properties": { "site_id": 452, "name": "PALAS", "lon": 23.88166667, "lat": 58.96776944, "ONIMI": "Taebla vald", "OKOOD": "0776", "MNIMI": "Lääne maakond", "MKOOD": "0057", "lau2": 776, "lon_cntr": 23.830520529699999, "lat_cntr": 58.966911850199999 }, "geometry": { "type": "Point", "coordinates": [ 23.88167, 58.96777 ] } },
{ "type": "Feature", "properties": { "site_id": 637, "name": "TAEBL", "lon": 23.74055833, "lat": 58.95471944, "ONIMI": "Taebla vald", "OKOOD": "0776", "MNIMI": "Lääne maakond", "MKOOD": "0057", "lau2": 776, "lon_cntr": 23.830520529699999, "lat_cntr": 58.966911850199999 }, "geometry": { "type": "Point", "coordinates": [ 23.74056, 58.95472 ] } },
{ "type": "Feature", "properties": { "site_id": 303, "name": "LAIKY", "lon": 23.99624444, "lat": 58.76435556, "ONIMI": "Martna vald", "OKOOD": "0452", "MNIMI": "Lääne maakond", "MKOOD": "0057", "lau2": 452, "lon_cntr": 23.8620089912, "lat_cntr": 58.842038115500003 }, "geometry": { "type": "Point", "coordinates": [ 23.99624, 58.76436 ] } },
{ "type": "Feature", "properties": { "site_id": 368, "name": "MARTN", "lon": 23.77973056, "lat": 58.83083333, "ONIMI": "Martna vald", "OKOOD": "0452", "MNIMI": "Lääne maakond", "MKOOD": "0057", "lau2": 452, "lon_cntr": 23.8620089912, "lat_cntr": 58.842038115500003 }, "geometry": { "type": "Point", "coordinates": [ 23.77973, 58.83083 ] } },
{ "type": "Feature", "properties": { "site_id": 564, "name": "ROKYL", "lon": 23.43249167, "lat": 58.91555556, "ONIMI": "Ridala vald", "OKOOD": "0674", "MNIMI": "Lääne maakond", "MKOOD": "0057", "lau2": 674, "lon_cntr": 23.586017695599999, "lat_cntr": 58.867186118799999 }, "geometry": { "type": "Point", "coordinates": [ 23.43249, 58.91556 ] } },
{ "type": "Feature", "properties": { "site_id": 606, "name": "SINAL", "lon": 23.57582778, "lat": 58.83250278, "ONIMI": "Ridala vald", "OKOOD": "0674", "MNIMI": "Lääne maakond", "MKOOD": "0057", "lau2": 674, "lon_cntr": 23.586017695599999, "lat_cntr": 58.867186118799999 }, "geometry": { "type": "Point", "coordinates": [ 23.57583, 58.8325 ] } },
{ "type": "Feature", "properties": { "site_id": 714, "name": "UUEM", "lon": 23.59111389, "lat": 58.94471944, "ONIMI": "Ridala vald", "OKOOD": "0674", "MNIMI": "Lääne maakond", "MKOOD": "0057", "lau2": 674, "lon_cntr": 23.586017695599999, "lat_cntr": 58.867186118799999 }, "geometry": { "type": "Point", "coordinates": [ 23.59111, 58.94472 ] } },
{ "type": "Feature", "properties": { "site_id": 965, "name": "PARRL", "lon": 23.62055556, "lat": 58.86444444, "ONIMI": "Ridala vald", "OKOOD": "0674", "MNIMI": "Lääne maakond", "MKOOD": "0057", "lau2": 674, "lon_cntr": 23.586017695599999, "lat_cntr": 58.867186118799999 }, "geometry": { "type": "Point", "coordinates": [ 23.62056, 58.86444 ] } },
{ "type": "Feature", "properties": { "site_id": 323, "name": "LIHUL", "lon": 23.81944167, "lat": 58.67638333, "ONIMI": "Lihula vald", "OKOOD": "0411", "MNIMI": "Lääne maakond", "MKOOD": "0057", "lau2": 411, "lon_cntr": 23.851170043900002, "lat_cntr": 58.690650172700003 }, "geometry": { "type": "Point", "coordinates": [ 23.81944, 58.67638 ] } },
{ "type": "Feature", "properties": { "site_id": 787, "name": "VORMS", "lon": 23.23527778, "lat": 58.99556389, "ONIMI": "Vormsi vald", "OKOOD": "0907", "MNIMI": "Lääne maakond", "MKOOD": "0057", "lau2": 907, "lon_cntr": 23.244337460099999, "lat_cntr": 59.003695180400001 }, "geometry": { "type": "Point", "coordinates": [ 23.23528, 58.99556 ] } },
{ "type": "Feature", "properties": { "site_id": 254, "name": "KOMSI", "lon": 23.62861389, "lat": 58.62416389, "ONIMI": "Hanila vald", "OKOOD": "0195", "MNIMI": "Lääne maakond", "MKOOD": "0057", "lau2": 195, "lon_cntr": 23.654080239, "lat_cntr": 58.608792710300001 }, "geometry": { "type": "Point", "coordinates": [ 23.62861, 58.62416 ] } },
{ "type": "Feature", "properties": { "site_id": 491, "name": "PIVAR", "lon": 23.61630833, "lat": 58.54385833, "ONIMI": "Hanila vald", "OKOOD": "0195", "MNIMI": "Lääne maakond", "MKOOD": "0057", "lau2": 195, "lon_cntr": 23.654080239, "lat_cntr": 58.608792710300001 }, "geometry": { "type": "Point", "coordinates": [ 23.61631, 58.54386 ] } },
{ "type": "Feature", "properties": { "site_id": 586, "name": "SALEV", "lon": 23.57833333, "lat": 58.68971944, "ONIMI": "Hanila vald", "OKOOD": "0195", "MNIMI": "Lääne maakond", "MKOOD": "0057", "lau2": 195, "lon_cntr": 23.654080239, "lat_cntr": 58.608792710300001 }, "geometry": { "type": "Point", "coordinates": [ 23.57833, 58.68972 ] } },
{ "type": "Feature", "properties": { "site_id": 772, "name": "VIRTS", "lon": 23.525, "lat": 58.57416389, "ONIMI": "Hanila vald", "OKOOD": "0195", "MNIMI": "Lääne maakond", "MKOOD": "0057", "lau2": 195, "lon_cntr": 23.654080239, "lat_cntr": 58.608792710300001 }, "geometry": { "type": "Point", "coordinates": [ 23.525, 58.57416 ] } },
{ "type": "Feature", "properties": { "site_id": 846, "name": "JMAAG", "lon": 27.43277778, "lat": 59.36444167, "ONIMI": "Jõhvi vald", "OKOOD": "0251", "MNIMI": "Ida-Viru maakond", "MKOOD": "0044", "lau2": 251, "lon_cntr": 27.408358525099999, "lat_cntr": 59.342439163199998 }, "geometry": { "type": "Point", "coordinates": [ 27.43278, 59.36444 ] } },
{ "type": "Feature", "properties": { "site_id": 149, "name": "JOHKE", "lon": 27.41439167, "lat": 59.35791667, "ONIMI": "Jõhvi vald", "OKOOD": "0251", "MNIMI": "Ida-Viru maakond", "MKOOD": "0044", "lau2": 251, "lon_cntr": 27.408358525099999, "lat_cntr": 59.342439163199998 }, "geometry": { "type": "Point", "coordinates": [ 27.41439, 59.35792 ] } },
{ "type": "Feature", "properties": { "site_id": 150, "name": "JOHVI", "lon": 27.41305, "lat": 59.35221111, "ONIMI": "Jõhvi vald", "OKOOD": "0251", "MNIMI": "Ida-Viru maakond", "MKOOD": "0044", "lau2": 251, "lon_cntr": 27.408358525099999, "lat_cntr": 59.342439163199998 }, "geometry": { "type": "Point", "coordinates": [ 27.41305, 59.35221 ] } },
{ "type": "Feature", "properties": { "site_id": 888, "name": "JOHKL", "lon": 27.41028611, "lat": 59.36333056, "ONIMI": "Jõhvi vald", "OKOOD": "0251", "MNIMI": "Ida-Viru maakond", "MKOOD": "0044", "lau2": 251, "lon_cntr": 27.408358525099999, "lat_cntr": 59.342439163199998 }, "geometry": { "type": "Point", "coordinates": [ 27.41029, 59.36333 ] } },
{ "type": "Feature", "properties": { "site_id": 1039, "name": "JOHEE", "lon": 27.39035556, "lat": 59.35712778, "ONIMI": "Jõhvi vald", "OKOOD": "0251", "MNIMI": "Ida-Viru maakond", "MKOOD": "0044", "lau2": 251, "lon_cntr": 27.408358525099999, "lat_cntr": 59.342439163199998 }, "geometry": { "type": "Point", "coordinates": [ 27.39036, 59.35713 ] } },
{ "type": "Feature", "properties": { "site_id": 398, "name": "MURST", "lon": 24.42920833, "lat": 59.45702222, "ONIMI": "Harku vald", "OKOOD": "0198", "MNIMI": "Harju maakond", "MKOOD": "0037", "lau2": 198, "lon_cntr": 24.442352720100001, "lat_cntr": 59.403537004599997 }, "geometry": { "type": "Point", "coordinates": [ 24.42921, 59.45702 ] } },
{ "type": "Feature", "properties": { "site_id": 210, "name": "KEILA", "lon": 24.45637778, "lat": 59.31138889, "ONIMI": "Harku vald", "OKOOD": "0198", "MNIMI": "Harju maakond", "MKOOD": "0037", "lau2": 198, "lon_cntr": 24.442352720100001, "lat_cntr": 59.403537004599997 }, "geometry": { "type": "Point", "coordinates": [ 24.45638, 59.31139 ] } },
{ "type": "Feature", "properties": { "site_id": 393, "name": "MPIIR", "lon": 24.46194167, "lat": 59.46721944, "ONIMI": "Harku vald", "OKOOD": "0198", "MNIMI": "Harju maakond", "MKOOD": "0037", "lau2": 198, "lon_cntr": 24.442352720100001, "lat_cntr": 59.403537004599997 }, "geometry": { "type": "Point", "coordinates": [ 24.46194, 59.46722 ] } },
{ "type": "Feature", "properties": { "site_id": 628, "name": "SUURU", "lon": 24.37527222, "lat": 59.46194444, "ONIMI": "Harku vald", "OKOOD": "0198", "MNIMI": "Harju maakond", "MKOOD": "0037", "lau2": 198, "lon_cntr": 24.442352720100001, "lat_cntr": 59.403537004599997 }, "geometry": { "type": "Point", "coordinates": [ 24.37527, 59.46194 ] } },
{ "type": "Feature", "properties": { "site_id": 775, "name": "VJOES", "lon": 24.37249167, "lat": 59.43333056, "ONIMI": "Harku vald", "OKOOD": "0198", "MNIMI": "Harju maakond", "MKOOD": "0037", "lau2": 198, "lon_cntr": 24.442352720100001, "lat_cntr": 59.403537004599997 }, "geometry": { "type": "Point", "coordinates": [ 24.37249, 59.43333 ] } },
{ "type": "Feature", "properties": { "site_id": 1001, "name": "KJSIK", "lon": 24.29972222, "lat": 59.40722222, "ONIMI": "Harku vald", "OKOOD": "0198", "MNIMI": "Harju maakond", "MKOOD": "0037", "lau2": 198, "lon_cntr": 24.442352720100001, "lat_cntr": 59.403537004599997 }, "geometry": { "type": "Point", "coordinates": [ 24.29972, 59.40722 ] } },
{ "type": "Feature", "properties": { "site_id": 52, "name": "CERES", "lon": 24.59569444, "lat": 59.41427778, "ONIMI": "Harku vald", "OKOOD": "0198", "MNIMI": "Harju maakond", "MKOOD": "0037", "lau2": 198, "lon_cntr": 24.442352720100001, "lat_cntr": 59.403537004599997 }, "geometry": { "type": "Point", "coordinates": [ 24.59569, 59.41428 ] } },
{ "type": "Feature", "properties": { "site_id": 635, "name": "TABAS", "lon": 24.54916667, "lat": 59.42833056, "ONIMI": "Harku vald", "OKOOD": "0198", "MNIMI": "Harju maakond", "MKOOD": "0037", "lau2": 198, "lon_cntr": 24.442352720100001, "lat_cntr": 59.403537004599997 }, "geometry": { "type": "Point", "coordinates": [ 24.54917, 59.42833 ] } },
{ "type": "Feature", "properties": { "site_id": 887, "name": "INSTI", "lon": 24.5775, "lat": 59.38778056, "ONIMI": "Harku vald", "OKOOD": "0198", "MNIMI": "Harju maakond", "MKOOD": "0037", "lau2": 198, "lon_cntr": 24.442352720100001, "lat_cntr": 59.403537004599997 }, "geometry": { "type": "Point", "coordinates": [ 24.5775, 59.38778 ] } },
{ "type": "Feature", "properties": { "site_id": 895, "name": "LIIKV", "lon": 24.41334167, "lat": 59.42916111, "ONIMI": "Harku vald", "OKOOD": "0198", "MNIMI": "Harju maakond", "MKOOD": "0037", "lau2": 198, "lon_cntr": 24.442352720100001, "lat_cntr": 59.403537004599997 }, "geometry": { "type": "Point", "coordinates": [ 24.41334, 59.42916 ] } },
{ "type": "Feature", "properties": { "site_id": 337, "name": "LOHUS", "lon": 24.23526667, "lat": 59.3825, "ONIMI": "Keila vald", "OKOOD": "0295", "MNIMI": "Harju maakond", "MKOOD": "0037", "lau2": 295, "lon_cntr": 24.291986319, "lat_cntr": 59.316171866799998 }, "geometry": { "type": "Point", "coordinates": [ 24.23527, 59.3825 ] } },
{ "type": "Feature", "properties": { "site_id": 954, "name": "KLOGA", "lon": 24.23027778, "lat": 59.31861111, "ONIMI": "Keila vald", "OKOOD": "0295", "MNIMI": "Harju maakond", "MKOOD": "0037", "lau2": 295, "lon_cntr": 24.291986319, "lat_cntr": 59.316171866799998 }, "geometry": { "type": "Point", "coordinates": [ 24.23028, 59.31861 ] } },
{ "type": "Feature", "properties": { "site_id": 237, "name": "KJORL", "lon": 24.27569444, "lat": 59.39740833, "ONIMI": "Keila vald", "OKOOD": "0295", "MNIMI": "Harju maakond", "MKOOD": "0037", "lau2": 295, "lon_cntr": 24.291986319, "lat_cntr": 59.316171866799998 }, "geometry": { "type": "Point", "coordinates": [ 24.27569, 59.39741 ] } },
{ "type": "Feature", "properties": { "site_id": 239, "name": "KLOOG", "lon": 24.25716667, "lat": 59.32078056, "ONIMI": "Keila vald", "OKOOD": "0295", "MNIMI": "Harju maakond", "MKOOD": "0037", "lau2": 295, "lon_cntr": 24.291986319, "lat_cntr": 59.316171866799998 }, "geometry": { "type": "Point", "coordinates": [ 24.25717, 59.32078 ] } },
{ "type": "Feature", "properties": { "site_id": 309, "name": "LAULA", "lon": 24.30526667, "lat": 59.37194167, "ONIMI": "Keila vald", "OKOOD": "0295", "MNIMI": "Harju maakond", "MKOOD": "0037", "lau2": 295, "lon_cntr": 24.291986319, "lat_cntr": 59.316171866799998 }, "geometry": { "type": "Point", "coordinates": [ 24.30527, 59.37194 ] } },
{ "type": "Feature", "properties": { "site_id": 312, "name": "LEHOL", "lon": 24.32804722, "lat": 59.28972222, "ONIMI": "Keila vald", "OKOOD": "0295", "MNIMI": "Harju maakond", "MKOOD": "0037", "lau2": 295, "lon_cntr": 24.291986319, "lat_cntr": 59.316171866799998 }, "geometry": { "type": "Point", "coordinates": [ 24.32805, 59.28972 ] } },
{ "type": "Feature", "properties": { "site_id": 890, "name": "KKYLA", "lon": 24.3925, "lat": 59.34055556, "ONIMI": "Keila vald", "OKOOD": "0295", "MNIMI": "Harju maakond", "MKOOD": "0037", "lau2": 295, "lon_cntr": 24.291986319, "lat_cntr": 59.316171866799998 }, "geometry": { "type": "Point", "coordinates": [ 24.3925, 59.34056 ] } },
{ "type": "Feature", "properties": { "site_id": 451, "name": "PALAD", "lon": 22.91284444, "lat": 58.96478333, "ONIMI": "Pühalepa vald", "OKOOD": "0639", "MNIMI": "Hiiu maakond", "MKOOD": "0039", "lau2": 639, "lon_cntr": 22.861084696900001, "lat_cntr": 58.921633515000003 }, "geometry": { "type": "Point", "coordinates": [ 22.91284, 58.96478 ] } },
{ "type": "Feature", "properties": { "site_id": 627, "name": "SUURE", "lon": 22.94001944, "lat": 58.87093889, "ONIMI": "Pühalepa vald", "OKOOD": "0639", "MNIMI": "Hiiu maakond", "MKOOD": "0039", "lau2": 639, "lon_cntr": 22.861084696900001, "lat_cntr": 58.921633515000003 }, "geometry": { "type": "Point", "coordinates": [ 22.94002, 58.87094 ] } },
{ "type": "Feature", "properties": { "site_id": 947, "name": "HELTE", "lon": 23.04722222, "lat": 58.86666667, "ONIMI": "Pühalepa vald", "OKOOD": "0639", "MNIMI": "Hiiu maakond", "MKOOD": "0039", "lau2": 639, "lon_cntr": 22.861084696900001, "lat_cntr": 58.921633515000003 }, "geometry": { "type": "Point", "coordinates": [ 23.04722, 58.86667 ] } },
{ "type": "Feature", "properties": { "site_id": 640, "name": "TALI", "lon": 24.77388056, "lat": 58.06999167, "ONIMI": "Saarde vald", "OKOOD": "0710", "MNIMI": "Pärnu maakond", "MKOOD": "0067", "lau2": 710, "lon_cntr": 24.953190448499999, "lat_cntr": 58.147754927500003 }, "geometry": { "type": "Point", "coordinates": [ 24.77388, 58.06999 ] } },
{ "type": "Feature", "properties": { "site_id": 228, "name": "KILNO", "lon": 24.94861389, "lat": 58.14888056, "ONIMI": "Saarde vald", "OKOOD": "0710", "MNIMI": "Pärnu maakond", "MKOOD": "0067", "lau2": 710, "lon_cntr": 24.953190448499999, "lat_cntr": 58.147754927500003 }, "geometry": { "type": "Point", "coordinates": [ 24.94861, 58.14888 ] } },
{ "type": "Feature", "properties": { "site_id": 229, "name": "KILNQ", "lon": 24.99944444, "lat": 58.15666944, "ONIMI": "Saarde vald", "OKOOD": "0710", "MNIMI": "Pärnu maakond", "MKOOD": "0067", "lau2": 710, "lon_cntr": 24.953190448499999, "lat_cntr": 58.147754927500003 }, "geometry": { "type": "Point", "coordinates": [ 24.99944, 58.15667 ] } },
{ "type": "Feature", "properties": { "site_id": 175, "name": "KANAK", "lon": 25.13159444, "lat": 58.25042222, "ONIMI": "Saarde vald", "OKOOD": "0710", "MNIMI": "Pärnu maakond", "MKOOD": "0067", "lau2": 710, "lon_cntr": 24.953190448499999, "lat_cntr": 58.147754927500003 }, "geometry": { "type": "Point", "coordinates": [ 25.13159, 58.25042 ] } },
{ "type": "Feature", "properties": { "site_id": 560, "name": "ROELA", "lon": 26.61166667, "lat": 59.16582222, "ONIMI": "Vinni vald", "OKOOD": "0900", "MNIMI": "Lääne-Viru maakond", "MKOOD": "0059", "lau2": 900, "lon_cntr": 26.604730532800001, "lat_cntr": 59.213417230499999 }, "geometry": { "type": "Point", "coordinates": [ 26.61167, 59.16582 ] } },
{ "type": "Feature", "properties": { "site_id": 768, "name": "VINNI", "lon": 26.41930278, "lat": 59.30473056, "ONIMI": "Vinni vald", "OKOOD": "0900", "MNIMI": "Lääne-Viru maakond", "MKOOD": "0059", "lau2": 900, "lon_cntr": 26.604730532800001, "lat_cntr": 59.213417230499999 }, "geometry": { "type": "Point", "coordinates": [ 26.4193, 59.30473 ] } },
{ "type": "Feature", "properties": { "site_id": 774, "name": "VJAAG", "lon": 26.47554722, "lat": 59.24999444, "ONIMI": "Vinni vald", "OKOOD": "0900", "MNIMI": "Lääne-Viru maakond", "MKOOD": "0059", "lau2": 900, "lon_cntr": 26.604730532800001, "lat_cntr": 59.213417230499999 }, "geometry": { "type": "Point", "coordinates": [ 26.47555, 59.24999 ] } },
{ "type": "Feature", "properties": { "site_id": 1015, "name": "PJUST", "lon": 26.41472222, "lat": 59.28111111, "ONIMI": "Vinni vald", "OKOOD": "0900", "MNIMI": "Lääne-Viru maakond", "MKOOD": "0059", "lau2": 900, "lon_cntr": 26.604730532800001, "lat_cntr": 59.213417230499999 }, "geometry": { "type": "Point", "coordinates": [ 26.41472, 59.28111 ] } },
{ "type": "Feature", "properties": { "site_id": 696, "name": "TUDU", "lon": 26.83334167, "lat": 59.18638889, "ONIMI": "Vinni vald", "OKOOD": "0900", "MNIMI": "Lääne-Viru maakond", "MKOOD": "0059", "lau2": 900, "lon_cntr": 26.604730532800001, "lat_cntr": 59.213417230499999 }, "geometry": { "type": "Point", "coordinates": [ 26.83334, 59.18639 ] } },
{ "type": "Feature", "properties": { "site_id": 904, "name": "PIIRA", "lon": 26.37499167, "lat": 59.32305556, "ONIMI": "Vinni vald", "OKOOD": "0900", "MNIMI": "Lääne-Viru maakond", "MKOOD": "0059", "lau2": 900, "lon_cntr": 26.604730532800001, "lat_cntr": 59.213417230499999 }, "geometry": { "type": "Point", "coordinates": [ 26.37499, 59.32306 ] } },
{ "type": "Feature", "properties": { "site_id": 549, "name": "RIKYL", "lon": 24.74223056, "lat": 58.19278056, "ONIMI": "Surju vald", "OKOOD": "0756", "MNIMI": "Pärnu maakond", "MKOOD": "0067", "lau2": 756, "lon_cntr": 24.779565451500002, "lat_cntr": 58.248646209299999 }, "geometry": { "type": "Point", "coordinates": [ 24.74223, 58.19278 ] } },
{ "type": "Feature", "properties": { "site_id": 843, "name": "KARED", "lon": 25.79308333, "lat": 58.97265556, "ONIMI": "Kareda vald", "OKOOD": "0288", "MNIMI": "Järva maakond", "MKOOD": "0051", "lau2": 288, "lon_cntr": 25.818779186, "lat_cntr": 58.9413773729 }, "geometry": { "type": "Point", "coordinates": [ 25.79308, 58.97266 ] } },
{ "type": "Feature", "properties": { "site_id": 294, "name": "KYLIT", "lon": 26.57075556, "lat": 58.29570278, "ONIMI": "Nõo vald", "OKOOD": "0528", "MNIMI": "Tartu maakond", "MKOOD": "0078", "lau2": 528, "lon_cntr": 26.5121225868, "lat_cntr": 58.252152573399997 }, "geometry": { "type": "Point", "coordinates": [ 26.57076, 58.2957 ] } },
{ "type": "Feature", "properties": { "site_id": 421, "name": "NOO", "lon": 26.52887222, "lat": 58.27305556, "ONIMI": "Nõo vald", "OKOOD": "0528", "MNIMI": "Tartu maakond", "MKOOD": "0078", "lau2": 528, "lon_cntr": 26.5121225868, "lat_cntr": 58.252152573399997 }, "geometry": { "type": "Point", "coordinates": [ 26.52887, 58.27306 ] } },
{ "type": "Feature", "properties": { "site_id": 874, "name": "TORAV", "lon": 26.46471944, "lat": 58.26583056, "ONIMI": "Nõo vald", "OKOOD": "0528", "MNIMI": "Tartu maakond", "MKOOD": "0078", "lau2": 528, "lon_cntr": 26.5121225868, "lat_cntr": 58.252152573399997 }, "geometry": { "type": "Point", "coordinates": [ 26.46472, 58.26583 ] } },
{ "type": "Feature", "properties": { "site_id": 566, "name": "RONGU", "lon": 26.26193056, "lat": 58.13776944, "ONIMI": "Rõngu vald", "OKOOD": "0694", "MNIMI": "Tartu maakond", "MKOOD": "0078", "lau2": 694, "lon_cntr": 26.2417326096, "lat_cntr": 58.1674141664 }, "geometry": { "type": "Point", "coordinates": [ 26.26193, 58.13777 ] } },
{ "type": "Feature", "properties": { "site_id": 145, "name": "JJAAN", "lon": 25.89444167, "lat": 59.04026667, "ONIMI": "Järva-Jaani vald", "OKOOD": "0257", "MNIMI": "Järva maakond", "MKOOD": "0051", "lau2": 257, "lon_cntr": 25.910010865299999, "lat_cntr": 59.046007259500001 }, "geometry": { "type": "Point", "coordinates": [ 25.89444, 59.04027 ] } },
{ "type": "Feature", "properties": { "site_id": 595, "name": "SAUKO", "lon": 24.50855556, "lat": 58.43130833, "ONIMI": "Sauga vald", "OKOOD": "0730", "MNIMI": "Pärnu maakond", "MKOOD": "0067", "lau2": 730, "lon_cntr": 24.565213673799999, "lat_cntr": 58.447373831999997 }, "geometry": { "type": "Point", "coordinates": [ 24.50856, 58.43131 ] } },
{ "type": "Feature", "properties": { "site_id": 1006, "name": "KILKS", "lon": 24.61583333, "lat": 58.45138889, "ONIMI": "Sauga vald", "OKOOD": "0730", "MNIMI": "Pärnu maakond", "MKOOD": "0067", "lau2": 730, "lon_cntr": 24.565213673799999, "lat_cntr": 58.447373831999997 }, "geometry": { "type": "Point", "coordinates": [ 24.61583, 58.45139 ] } },
{ "type": "Feature", "properties": { "site_id": 203, "name": "KDRIN", "lon": 26.14027222, "lat": 59.34860556, "ONIMI": "Kadrina vald", "OKOOD": "0272", "MNIMI": "Lääne-Viru maakond", "MKOOD": "0059", "lau2": 272, "lon_cntr": 26.048066866199999, "lat_cntr": 59.371116005099999 }, "geometry": { "type": "Point", "coordinates": [ 26.14027, 59.34861 ] } },
{ "type": "Feature", "properties": { "site_id": 163, "name": "KADMA", "lon": 26.09889167, "lat": 59.37638333, "ONIMI": "Kadrina vald", "OKOOD": "0272", "MNIMI": "Lääne-Viru maakond", "MKOOD": "0059", "lau2": 272, "lon_cntr": 26.048066866199999, "lat_cntr": 59.371116005099999 }, "geometry": { "type": "Point", "coordinates": [ 26.09889, 59.37638 ] } },
{ "type": "Feature", "properties": { "site_id": 759, "name": "VIITN", "lon": 25.99110833, "lat": 59.45916944, "ONIMI": "Kadrina vald", "OKOOD": "0272", "MNIMI": "Lääne-Viru maakond", "MKOOD": "0059", "lau2": 272, "lon_cntr": 26.048066866199999, "lat_cntr": 59.371116005099999 }, "geometry": { "type": "Point", "coordinates": [ 25.99111, 59.45917 ] } },
{ "type": "Feature", "properties": { "site_id": 832, "name": "HULJA", "lon": 26.21138056, "lat": 59.355, "ONIMI": "Kadrina vald", "OKOOD": "0272", "MNIMI": "Lääne-Viru maakond", "MKOOD": "0059", "lau2": 272, "lon_cntr": 26.048066866199999, "lat_cntr": 59.371116005099999 }, "geometry": { "type": "Point", "coordinates": [ 26.21138, 59.355 ] } },
{ "type": "Feature", "properties": { "site_id": 39, "name": "ASTE", "lon": 22.46056667, "lat": 58.33444167, "ONIMI": "Kaarma vald", "OKOOD": "0270", "MNIMI": "Saare maakond", "MKOOD": "0074", "lau2": 270, "lon_cntr": 22.479559787199999, "lat_cntr": 58.331982554500001 }, "geometry": { "type": "Point", "coordinates": [ 22.46057, 58.33444 ] } },
{ "type": "Feature", "properties": { "site_id": 64, "name": "EIKLA", "lon": 22.51749444, "lat": 58.42472222, "ONIMI": "Kaarma vald", "OKOOD": "0270", "MNIMI": "Saare maakond", "MKOOD": "0074", "lau2": 270, "lon_cntr": 22.479559787199999, "lat_cntr": 58.331982554500001 }, "geometry": { "type": "Point", "coordinates": [ 22.51749, 58.42472 ] } },
{ "type": "Feature", "properties": { "site_id": 415, "name": "NASVA", "lon": 22.37276944, "lat": 58.22360833, "ONIMI": "Kaarma vald", "OKOOD": "0270", "MNIMI": "Saare maakond", "MKOOD": "0074", "lau2": 270, "lon_cntr": 22.479559787199999, "lat_cntr": 58.331982554500001 }, "geometry": { "type": "Point", "coordinates": [ 22.37277, 58.22361 ] } },
{ "type": "Feature", "properties": { "site_id": 1035, "name": "MRATS", "lon": 22.56416667, "lat": 58.24, "ONIMI": "Kaarma vald", "OKOOD": "0270", "MNIMI": "Saare maakond", "MKOOD": "0074", "lau2": 270, "lon_cntr": 22.479559787199999, "lat_cntr": 58.331982554500001 }, "geometry": { "type": "Point", "coordinates": [ 22.56417, 58.24 ] } },
{ "type": "Feature", "properties": { "site_id": 605, "name": "SIMUN", "lon": 26.39138889, "lat": 59.04526944, "ONIMI": "Väike-Maarja vald", "OKOOD": "0926", "MNIMI": "Lääne-Viru maakond", "MKOOD": "0059", "lau2": 926, "lon_cntr": 26.325679534799999, "lat_cntr": 59.073137409300003 }, "geometry": { "type": "Point", "coordinates": [ 26.39139, 59.04527 ] } },
{ "type": "Feature", "properties": { "site_id": 56, "name": "EBAVE", "lon": 26.25609722, "lat": 59.09693889, "ONIMI": "Väike-Maarja vald", "OKOOD": "0926", "MNIMI": "Lääne-Viru maakond", "MKOOD": "0059", "lau2": 926, "lon_cntr": 26.325679534799999, "lat_cntr": 59.073137409300003 }, "geometry": { "type": "Point", "coordinates": [ 26.2561, 59.09694 ] } },
{ "type": "Feature", "properties": { "site_id": 778, "name": "VMAAR", "lon": 26.23860833, "lat": 59.12443889, "ONIMI": "Väike-Maarja vald", "OKOOD": "0926", "MNIMI": "Lääne-Viru maakond", "MKOOD": "0059", "lau2": 926, "lon_cntr": 26.325679534799999, "lat_cntr": 59.073137409300003 }, "geometry": { "type": "Point", "coordinates": [ 26.23861, 59.12444 ] } },
{ "type": "Feature", "properties": { "site_id": 184, "name": "KARIL", "lon": 26.93278889, "lat": 58.15776944, "ONIMI": "Vastse-Kuuste vald", "OKOOD": "0872", "MNIMI": "Põlva maakond", "MKOOD": "0065", "lau2": 872, "lon_cntr": 26.955811115900001, "lat_cntr": 58.1699521452 }, "geometry": { "type": "Point", "coordinates": [ 26.93279, 58.15777 ] } },
{ "type": "Feature", "properties": { "site_id": 223, "name": "KIIDJ", "lon": 27.02110556, "lat": 58.12333056, "ONIMI": "Vastse-Kuuste vald", "OKOOD": "0872", "MNIMI": "Põlva maakond", "MKOOD": "0065", "lau2": 872, "lon_cntr": 26.955811115900001, "lat_cntr": 58.1699521452 }, "geometry": { "type": "Point", "coordinates": [ 27.02111, 58.12333 ] } },
{ "type": "Feature", "properties": { "site_id": 317, "name": "LENJU", "lon": 24.82679444, "lat": 59.40991389, "ONIMI": "Rae vald", "OKOOD": "0653", "MNIMI": "Harju maakond", "MKOOD": "0037", "lau2": 653, "lon_cntr": 24.951840971100001, "lat_cntr": 59.3338931726 }, "geometry": { "type": "Point", "coordinates": [ 24.82679, 59.40991 ] } },
{ "type": "Feature", "properties": { "site_id": 601, "name": "SHENK", "lon": 24.81721667, "lat": 59.40693889, "ONIMI": "Rae vald", "OKOOD": "0653", "MNIMI": "Harju maakond", "MKOOD": "0037", "lau2": 653, "lon_cntr": 24.951840971100001, "lat_cntr": 59.3338931726 }, "geometry": { "type": "Point", "coordinates": [ 24.81722, 59.40694 ] } },
{ "type": "Feature", "properties": { "site_id": 34, "name": "ARVAL", "lon": 25.01896944, "lat": 59.24969444, "ONIMI": "Rae vald", "OKOOD": "0653", "MNIMI": "Harju maakond", "MKOOD": "0037", "lau2": 653, "lon_cntr": 24.951840971100001, "lat_cntr": 59.3338931726 }, "geometry": { "type": "Point", "coordinates": [ 25.01897, 59.24969 ] } },
{ "type": "Feature", "properties": { "site_id": 722, "name": "VAIDA", "lon": 24.97500278, "lat": 59.27971389, "ONIMI": "Rae vald", "OKOOD": "0653", "MNIMI": "Harju maakond", "MKOOD": "0037", "lau2": 653, "lon_cntr": 24.951840971100001, "lat_cntr": 59.3338931726 }, "geometry": { "type": "Point", "coordinates": [ 24.975, 59.27971 ] } },
{ "type": "Feature", "properties": { "site_id": 472, "name": "PATIQ", "lon": 24.92471667, "lat": 59.31471944, "ONIMI": "Rae vald", "OKOOD": "0653", "MNIMI": "Harju maakond", "MKOOD": "0037", "lau2": 653, "lon_cntr": 24.951840971100001, "lat_cntr": 59.3338931726 }, "geometry": { "type": "Point", "coordinates": [ 24.92472, 59.31472 ] } },
{ "type": "Feature", "properties": { "site_id": 864, "name": "LAIKE", "lon": 24.82250278, "lat": 59.39971667, "ONIMI": "Rae vald", "OKOOD": "0653", "MNIMI": "Harju maakond", "MKOOD": "0037", "lau2": 653, "lon_cntr": 24.951840971100001, "lat_cntr": 59.3338931726 }, "geometry": { "type": "Point", "coordinates": [ 24.8225, 59.39972 ] } },
{ "type": "Feature", "properties": { "site_id": 974, "name": "RETIT", "lon": 24.82833333, "lat": 59.38611111, "ONIMI": "Rae vald", "OKOOD": "0653", "MNIMI": "Harju maakond", "MKOOD": "0037", "lau2": 653, "lon_cntr": 24.951840971100001, "lat_cntr": 59.3338931726 }, "geometry": { "type": "Point", "coordinates": [ 24.82833, 59.38611 ] } },
{ "type": "Feature", "properties": { "site_id": 340, "name": "LOOPE", "lon": 24.85678889, "lat": 59.39315833, "ONIMI": "Rae vald", "OKOOD": "0653", "MNIMI": "Harju maakond", "MKOOD": "0037", "lau2": 653, "lon_cntr": 24.951840971100001, "lat_cntr": 59.3338931726 }, "geometry": { "type": "Point", "coordinates": [ 24.85679, 59.39316 ] } },
{ "type": "Feature", "properties": { "site_id": 889, "name": "JYFCC", "lon": 24.89694167, "lat": 59.34832778, "ONIMI": "Rae vald", "OKOOD": "0653", "MNIMI": "Harju maakond", "MKOOD": "0037", "lau2": 653, "lon_cntr": 24.951840971100001, "lat_cntr": 59.3338931726 }, "geometry": { "type": "Point", "coordinates": [ 24.89694, 59.34833 ] } },
{ "type": "Feature", "properties": { "site_id": 863, "name": "KULDA", "lon": 24.80471389, "lat": 59.40388333, "ONIMI": "Rae vald", "OKOOD": "0653", "MNIMI": "Harju maakond", "MKOOD": "0037", "lau2": 653, "lon_cntr": 24.951840971100001, "lat_cntr": 59.3338931726 }, "geometry": { "type": "Point", "coordinates": [ 24.80471, 59.40388 ] } },
{ "type": "Feature", "properties": { "site_id": 37, "name": "ASSKU", "lon": 24.82522222, "lat": 59.3725, "ONIMI": "Rae vald", "OKOOD": "0653", "MNIMI": "Harju maakond", "MKOOD": "0037", "lau2": 653, "lon_cntr": 24.951840971100001, "lat_cntr": 59.3338931726 }, "geometry": { "type": "Point", "coordinates": [ 24.82522, 59.3725 ] } },
{ "type": "Feature", "properties": { "site_id": 719, "name": "VAGEV", "lon": 24.80371111, "lat": 59.39417778, "ONIMI": "Rae vald", "OKOOD": "0653", "MNIMI": "Harju maakond", "MKOOD": "0037", "lau2": 653, "lon_cntr": 24.951840971100001, "lat_cntr": 59.3338931726 }, "geometry": { "type": "Point", "coordinates": [ 24.80371, 59.39418 ] } },
{ "type": "Feature", "properties": { "site_id": 156, "name": "JYRI", "lon": 24.89944167, "lat": 59.36193889, "ONIMI": "Rae vald", "OKOOD": "0653", "MNIMI": "Harju maakond", "MKOOD": "0037", "lau2": 653, "lon_cntr": 24.951840971100001, "lat_cntr": 59.3338931726 }, "geometry": { "type": "Point", "coordinates": [ 24.89944, 59.36194 ] } },
{ "type": "Feature", "properties": { "site_id": 157, "name": "JYRKA", "lon": 24.91973889, "lat": 59.35750556, "ONIMI": "Rae vald", "OKOOD": "0653", "MNIMI": "Harju maakond", "MKOOD": "0037", "lau2": 653, "lon_cntr": 24.951840971100001, "lat_cntr": 59.3338931726 }, "geometry": { "type": "Point", "coordinates": [ 24.91974, 59.35751 ] } },
{ "type": "Feature", "properties": { "site_id": 300, "name": "LAGED", "lon": 24.91943333, "lat": 59.40444167, "ONIMI": "Rae vald", "OKOOD": "0653", "MNIMI": "Harju maakond", "MKOOD": "0037", "lau2": 653, "lon_cntr": 24.951840971100001, "lat_cntr": 59.3338931726 }, "geometry": { "type": "Point", "coordinates": [ 24.91943, 59.40444 ] } },
{ "type": "Feature", "properties": { "site_id": 979, "name": "SLEEP", "lon": 24.88194444, "lat": 59.36777778, "ONIMI": "Rae vald", "OKOOD": "0653", "MNIMI": "Harju maakond", "MKOOD": "0037", "lau2": 653, "lon_cntr": 24.951840971100001, "lat_cntr": 59.3338931726 }, "geometry": { "type": "Point", "coordinates": [ 24.88194, 59.36778 ] } },
{ "type": "Feature", "properties": { "site_id": 1022, "name": "VAADI", "lon": 24.93972222, "lat": 59.37361111, "ONIMI": "Rae vald", "OKOOD": "0653", "MNIMI": "Harju maakond", "MKOOD": "0037", "lau2": 653, "lon_cntr": 24.951840971100001, "lat_cntr": 59.3338931726 }, "geometry": { "type": "Point", "coordinates": [ 24.93972, 59.37361 ] } },
{ "type": "Feature", "properties": { "site_id": 450, "name": "PALA", "lon": 27.01083056, "lat": 58.69639167, "ONIMI": "Pala vald", "OKOOD": "0576", "MNIMI": "Jõgeva maakond", "MKOOD": "0049", "lau2": 576, "lon_cntr": 27.0129969993, "lat_cntr": 58.690909939100003 }, "geometry": { "type": "Point", "coordinates": [ 27.01083, 58.69639 ] } },
{ "type": "Feature", "properties": { "site_id": 481, "name": "PIIBU", "lon": 27.04860556, "lat": 58.74833056, "ONIMI": "Pala vald", "OKOOD": "0576", "MNIMI": "Jõgeva maakond", "MKOOD": "0049", "lau2": 576, "lon_cntr": 27.0129969993, "lat_cntr": 58.690909939100003 }, "geometry": { "type": "Point", "coordinates": [ 27.04861, 58.74833 ] } },
{ "type": "Feature", "properties": { "site_id": 717, "name": "VAATS", "lon": 25.45027778, "lat": 58.88388889, "ONIMI": "Väätsa vald", "OKOOD": "0937", "MNIMI": "Järva maakond", "MKOOD": "0051", "lau2": 937, "lon_cntr": 25.396474143300001, "lat_cntr": 58.928987750300003 }, "geometry": { "type": "Point", "coordinates": [ 25.45028, 58.88389 ] } },
{ "type": "Feature", "properties": { "site_id": 244, "name": "KOERU", "lon": 26.05638056, "lat": 58.97472222, "ONIMI": "Koeru vald", "OKOOD": "0314", "MNIMI": "Järva maakond", "MKOOD": "0051", "lau2": 314, "lon_cntr": 26.027560543500002, "lat_cntr": 58.929969996499999 }, "geometry": { "type": "Point", "coordinates": [ 26.05638, 58.97472 ] } },
{ "type": "Feature", "properties": { "site_id": 134, "name": "IMAVE", "lon": 25.75778889, "lat": 58.74777778, "ONIMI": "Imavere vald", "OKOOD": "0234", "MNIMI": "Järva maakond", "MKOOD": "0051", "lau2": 234, "lon_cntr": 25.7501896391, "lat_cntr": 58.756972362799999 }, "geometry": { "type": "Point", "coordinates": [ 25.75779, 58.74778 ] } },
{ "type": "Feature", "properties": { "site_id": 841, "name": "AVERE", "lon": 25.9075, "lat": 58.71194444, "ONIMI": "Põltsamaa vald", "OKOOD": "0616", "MNIMI": "Jõgeva maakond", "MKOOD": "0049", "lau2": 616, "lon_cntr": 26.009592899899999, "lat_cntr": 58.644490604300003 }, "geometry": { "type": "Point", "coordinates": [ 25.9075, 58.71194 ] } },
{ "type": "Feature", "properties": { "site_id": 348, "name": "LUSTI", "lon": 26.09499444, "lat": 58.66305278, "ONIMI": "Põltsamaa vald", "OKOOD": "0616", "MNIMI": "Jõgeva maakond", "MKOOD": "0049", "lau2": 616, "lon_cntr": 26.009592899899999, "lat_cntr": 58.644490604300003 }, "geometry": { "type": "Point", "coordinates": [ 26.09499, 58.66305 ] } },
{ "type": "Feature", "properties": { "site_id": 1051, "name": "KAMAR", "lon": 25.99707222, "lat": 58.59725278, "ONIMI": "Põltsamaa vald", "OKOOD": "0616", "MNIMI": "Jõgeva maakond", "MKOOD": "0049", "lau2": 616, "lon_cntr": 26.009592899899999, "lat_cntr": 58.644490604300003 }, "geometry": { "type": "Point", "coordinates": [ 25.99707, 58.59725 ] } },
{ "type": "Feature", "properties": { "site_id": 178, "name": "KANTK", "lon": 26.64209444, "lat": 58.81951667, "ONIMI": "Torma vald", "OKOOD": "0810", "MNIMI": "Jõgeva maakond", "MKOOD": "0049", "lau2": 810, "lon_cntr": 26.6729265486, "lat_cntr": 58.865436468799999 }, "geometry": { "type": "Point", "coordinates": [ 26.64209, 58.81952 ] } },
{ "type": "Feature", "properties": { "site_id": 990, "name": "TORMQ", "lon": 26.72694444, "lat": 58.82361111, "ONIMI": "Torma vald", "OKOOD": "0810", "MNIMI": "Jõgeva maakond", "MKOOD": "0049", "lau2": 810, "lon_cntr": 26.6729265486, "lat_cntr": 58.865436468799999 }, "geometry": { "type": "Point", "coordinates": [ 26.72694, 58.82361 ] } },
{ "type": "Feature", "properties": { "site_id": 1036, "name": "SADAL", "lon": 26.60805556, "lat": 58.85666667, "ONIMI": "Torma vald", "OKOOD": "0810", "MNIMI": "Jõgeva maakond", "MKOOD": "0049", "lau2": 810, "lon_cntr": 26.6729265486, "lat_cntr": 58.865436468799999 }, "geometry": { "type": "Point", "coordinates": [ 26.60806, 58.85667 ] } },
{ "type": "Feature", "properties": { "site_id": 354, "name": "MAEKU", "lon": 25.75558056, "lat": 58.89574167, "ONIMI": "Paide vald", "OKOOD": "0565", "MNIMI": "Järva maakond", "MKOOD": "0051", "lau2": 565, "lon_cntr": 25.5742738611, "lat_cntr": 58.956341875699998 }, "geometry": { "type": "Point", "coordinates": [ 25.75558, 58.89574 ] } },
{ "type": "Feature", "properties": { "site_id": 24, "name": "ANNA", "lon": 25.55000556, "lat": 59.03333056, "ONIMI": "Paide vald", "OKOOD": "0565", "MNIMI": "Järva maakond", "MKOOD": "0051", "lau2": 565, "lon_cntr": 25.5742738611, "lat_cntr": 58.956341875699998 }, "geometry": { "type": "Point", "coordinates": [ 25.55001, 59.03333 ] } },
{ "type": "Feature", "properties": { "site_id": 363, "name": "MAO", "lon": 25.61388333, "lat": 58.91083056, "ONIMI": "Paide vald", "OKOOD": "0565", "MNIMI": "Järva maakond", "MKOOD": "0051", "lau2": 565, "lon_cntr": 25.5742738611, "lat_cntr": 58.956341875699998 }, "geometry": { "type": "Point", "coordinates": [ 25.61388, 58.91083 ] } },
{ "type": "Feature", "properties": { "site_id": 770, "name": "VIRAK", "lon": 25.52500556, "lat": 58.91361389, "ONIMI": "Paide vald", "OKOOD": "0565", "MNIMI": "Järva maakond", "MKOOD": "0051", "lau2": 565, "lon_cntr": 25.5742738611, "lat_cntr": 58.956341875699998 }, "geometry": { "type": "Point", "coordinates": [ 25.52501, 58.91361 ] } },
{ "type": "Feature", "properties": { "site_id": 906, "name": "PURDI", "lon": 25.60597222, "lat": 58.97459167, "ONIMI": "Paide vald", "OKOOD": "0565", "MNIMI": "Järva maakond", "MKOOD": "0051", "lau2": 565, "lon_cntr": 25.5742738611, "lat_cntr": 58.956341875699998 }, "geometry": { "type": "Point", "coordinates": [ 25.60597, 58.97459 ] } },
{ "type": "Feature", "properties": { "site_id": 636, "name": "TABIV", "lon": 26.59305278, "lat": 58.55138056, "ONIMI": "Tabivere vald", "OKOOD": "0773", "MNIMI": "Jõgeva maakond", "MKOOD": "0049", "lau2": 773, "lon_cntr": 26.645042026300001, "lat_cntr": 58.582016331600002 }, "geometry": { "type": "Point", "coordinates": [ 26.59305, 58.55138 ] } },
{ "type": "Feature", "properties": { "site_id": 352, "name": "MAAJA", "lon": 26.76334444, "lat": 58.61749722, "ONIMI": "Tabivere vald", "OKOOD": "0773", "MNIMI": "Jõgeva maakond", "MKOOD": "0049", "lau2": 773, "lon_cntr": 26.645042026300001, "lat_cntr": 58.582016331600002 }, "geometry": { "type": "Point", "coordinates": [ 26.76334, 58.6175 ] } },
{ "type": "Feature", "properties": { "site_id": 975, "name": "SAARM", "lon": 26.81555556, "lat": 58.72361111, "ONIMI": "Saare vald", "OKOOD": "0713", "MNIMI": "Jõgeva maakond", "MKOOD": "0049", "lau2": 713, "lon_cntr": 26.818907751499999, "lat_cntr": 58.721261323500002 }, "geometry": { "type": "Point", "coordinates": [ 26.81556, 58.72361 ] } },
{ "type": "Feature", "properties": { "site_id": 396, "name": "MULLA", "lon": 26.59472778, "lat": 58.60721944, "ONIMI": "Palamuse vald", "OKOOD": "0578", "MNIMI": "Jõgeva maakond", "MKOOD": "0049", "lau2": 578, "lon_cntr": 26.580204050300001, "lat_cntr": 58.661010603400001 }, "geometry": { "type": "Point", "coordinates": [ 26.59473, 58.60722 ] } },
{ "type": "Feature", "properties": { "site_id": 456, "name": "PALMU", "lon": 26.60582778, "lat": 58.69360556, "ONIMI": "Palamuse vald", "OKOOD": "0578", "MNIMI": "Jõgeva maakond", "MKOOD": "0049", "lau2": 578, "lon_cntr": 26.580204050300001, "lat_cntr": 58.661010603400001 }, "geometry": { "type": "Point", "coordinates": [ 26.60583, 58.69361 ] } },
{ "type": "Feature", "properties": { "site_id": 581, "name": "SADUK", "lon": 26.29221944, "lat": 58.67888333, "ONIMI": "Puurmani vald", "OKOOD": "0611", "MNIMI": "Jõgeva maakond", "MKOOD": "0049", "lau2": 611, "lon_cntr": 26.2738059787, "lat_cntr": 58.586575737899999 }, "geometry": { "type": "Point", "coordinates": [ 26.29222, 58.67888 ] } },
{ "type": "Feature", "properties": { "site_id": 517, "name": "PUURQ", "lon": 26.28444167, "lat": 58.57499444, "ONIMI": "Puurmani vald", "OKOOD": "0611", "MNIMI": "Jõgeva maakond", "MKOOD": "0049", "lau2": 611, "lon_cntr": 26.2738059787, "lat_cntr": 58.586575737899999 }, "geometry": { "type": "Point", "coordinates": [ 26.28444, 58.57499 ] } },
{ "type": "Feature", "properties": { "site_id": 264, "name": "KORKY", "lon": 26.01777778, "lat": 58.78721389, "ONIMI": "Pajusi vald", "OKOOD": "0573", "MNIMI": "Jõgeva maakond", "MKOOD": "0049", "lau2": 573, "lon_cntr": 26.0942441503, "lat_cntr": 58.760521476000001 }, "geometry": { "type": "Point", "coordinates": [ 26.01778, 58.78721 ] } },
{ "type": "Feature", "properties": { "site_id": 1038, "name": "VAGAR", "lon": 26.21472222, "lat": 58.73166667, "ONIMI": "Pajusi vald", "OKOOD": "0573", "MNIMI": "Jõgeva maakond", "MKOOD": "0049", "lau2": 573, "lon_cntr": 26.0942441503, "lat_cntr": 58.760521476000001 }, "geometry": { "type": "Point", "coordinates": [ 26.21472, 58.73167 ] } },
{ "type": "Feature", "properties": { "site_id": 955, "name": "KURMA", "lon": 26.53833333, "lat": 58.73722222, "ONIMI": "Jõgeva vald", "OKOOD": "0248", "MNIMI": "Jõgeva maakond", "MKOOD": "0049", "lau2": 248, "lon_cntr": 26.385834236299999, "lat_cntr": 58.794497101099999 }, "geometry": { "type": "Point", "coordinates": [ 26.53833, 58.73722 ] } },
{ "type": "Feature", "properties": { "site_id": 306, "name": "LAIUS", "lon": 26.49665833, "lat": 58.78333333, "ONIMI": "Jõgeva vald", "OKOOD": "0248", "MNIMI": "Jõgeva maakond", "MKOOD": "0049", "lau2": 248, "lon_cntr": 26.385834236299999, "lat_cntr": 58.794497101099999 }, "geometry": { "type": "Point", "coordinates": [ 26.49666, 58.78333 ] } },
{ "type": "Feature", "properties": { "site_id": 147, "name": "JOGEV", "lon": 26.36194444, "lat": 58.73833333, "ONIMI": "Jõgeva vald", "OKOOD": "0248", "MNIMI": "Jõgeva maakond", "MKOOD": "0049", "lau2": 248, "lon_cntr": 26.385834236299999, "lat_cntr": 58.794497101099999 }, "geometry": { "type": "Point", "coordinates": [ 26.36194, 58.73833 ] } },
{ "type": "Feature", "properties": { "site_id": 215, "name": "KERDE", "lon": 26.29264167, "lat": 58.84896667, "ONIMI": "Jõgeva vald", "OKOOD": "0248", "MNIMI": "Jõgeva maakond", "MKOOD": "0049", "lau2": 248, "lon_cntr": 26.385834236299999, "lat_cntr": 58.794497101099999 }, "geometry": { "type": "Point", "coordinates": [ 26.29264, 58.84897 ] } },
{ "type": "Feature", "properties": { "site_id": 711, "name": "ULVI", "lon": 26.60860556, "lat": 59.32305556, "ONIMI": "Rägavere vald", "OKOOD": "0702", "MNIMI": "Lääne-Viru maakond", "MKOOD": "0059", "lau2": 702, "lon_cntr": 26.6471912895, "lat_cntr": 59.311638083399998 }, "geometry": { "type": "Point", "coordinates": [ 26.60861, 59.32306 ] } },
{ "type": "Feature", "properties": { "site_id": 322, "name": "LIBA", "lon": 24.46916667, "lat": 58.65749167, "ONIMI": "Halinga vald", "OKOOD": "0188", "MNIMI": "Pärnu maakond", "MKOOD": "0067", "lau2": 188, "lon_cntr": 24.480829748400001, "lat_cntr": 58.621053484599997 }, "geometry": { "type": "Point", "coordinates": [ 24.46917, 58.65749 ] } },
{ "type": "Feature", "properties": { "site_id": 1002, "name": "VAHEN", "lon": 24.36777778, "lat": 58.625, "ONIMI": "Halinga vald", "OKOOD": "0188", "MNIMI": "Pärnu maakond", "MKOOD": "0067", "lau2": 188, "lon_cntr": 24.480829748400001, "lat_cntr": 58.621053484599997 }, "geometry": { "type": "Point", "coordinates": [ 24.36778, 58.625 ] } },
{ "type": "Feature", "properties": { "site_id": 105, "name": "HALIQ", "lon": 24.51471667, "lat": 58.60194167, "ONIMI": "Halinga vald", "OKOOD": "0188", "MNIMI": "Pärnu maakond", "MKOOD": "0067", "lau2": 188, "lon_cntr": 24.480829748400001, "lat_cntr": 58.621053484599997 }, "geometry": { "type": "Point", "coordinates": [ 24.51472, 58.60194 ] } },
{ "type": "Feature", "properties": { "site_id": 438, "name": "PAARD", "lon": 24.41278056, "lat": 58.76861389, "ONIMI": "Vigala vald", "OKOOD": "0884", "MNIMI": "Rapla maakond", "MKOOD": "0070", "lau2": 884, "lon_cntr": 24.2996619838, "lat_cntr": 58.736744067300002 }, "geometry": { "type": "Point", "coordinates": [ 24.41278, 58.76861 ] } },
{ "type": "Feature", "properties": { "site_id": 793, "name": "VVIGA", "lon": 24.26304722, "lat": 58.75082222, "ONIMI": "Vigala vald", "OKOOD": "0884", "MNIMI": "Rapla maakond", "MKOOD": "0070", "lau2": 884, "lon_cntr": 24.2996619838, "lat_cntr": 58.736744067300002 }, "geometry": { "type": "Point", "coordinates": [ 24.26305, 58.75082 ] } },
{ "type": "Feature", "properties": { "site_id": 921, "name": "VIGAQ", "lon": 24.39526944, "lat": 58.70611111, "ONIMI": "Vigala vald", "OKOOD": "0884", "MNIMI": "Rapla maakond", "MKOOD": "0070", "lau2": 884, "lon_cntr": 24.2996619838, "lat_cntr": 58.736744067300002 }, "geometry": { "type": "Point", "coordinates": [ 24.39527, 58.70611 ] } },
{ "type": "Feature", "properties": { "site_id": 553, "name": "RITSU", "lon": 25.84596667, "lat": 58.03417778, "ONIMI": "Helme vald", "OKOOD": "0203", "MNIMI": "Valga maakond", "MKOOD": "0082", "lau2": 203, "lon_cntr": 25.807247826099999, "lat_cntr": 57.984819715500002 }, "geometry": { "type": "Point", "coordinates": [ 25.84597, 58.03418 ] } },
{ "type": "Feature", "properties": { "site_id": 687, "name": "TORVA", "lon": 25.93639444, "lat": 57.99249167, "ONIMI": "Helme vald", "OKOOD": "0203", "MNIMI": "Valga maakond", "MKOOD": "0082", "lau2": 203, "lon_cntr": 25.807247826099999, "lat_cntr": 57.984819715500002 }, "geometry": { "type": "Point", "coordinates": [ 25.93639, 57.99249 ] } },
{ "type": "Feature", "properties": { "site_id": 634, "name": "TAAGE", "lon": 25.70506667, "lat": 58.00733333, "ONIMI": "Helme vald", "OKOOD": "0203", "MNIMI": "Valga maakond", "MKOOD": "0082", "lau2": 203, "lon_cntr": 25.807247826099999, "lat_cntr": 57.984819715500002 }, "geometry": { "type": "Point", "coordinates": [ 25.70507, 58.00733 ] } },
{ "type": "Feature", "properties": { "site_id": 165, "name": "KAINA", "lon": 22.77583333, "lat": 58.83055556, "ONIMI": "Käina vald", "OKOOD": "0368", "MNIMI": "Hiiu maakond", "MKOOD": "0039", "lau2": 368, "lon_cntr": 22.722994978199999, "lat_cntr": 58.836709045 }, "geometry": { "type": "Point", "coordinates": [ 22.77583, 58.83056 ] } },
{ "type": "Feature", "properties": { "site_id": 2, "name": "AADMA", "lon": 22.65482778, "lat": 58.80254722, "ONIMI": "Käina vald", "OKOOD": "0368", "MNIMI": "Hiiu maakond", "MKOOD": "0039", "lau2": 368, "lon_cntr": 22.722994978199999, "lat_cntr": 58.836709045 }, "geometry": { "type": "Point", "coordinates": [ 22.65483, 58.80255 ] } },
{ "type": "Feature", "properties": { "site_id": 192, "name": "KASSA", "lon": 22.83027778, "lat": 58.78749167, "ONIMI": "Käina vald", "OKOOD": "0368", "MNIMI": "Hiiu maakond", "MKOOD": "0039", "lau2": 368, "lon_cntr": 22.722994978199999, "lat_cntr": 58.836709045 }, "geometry": { "type": "Point", "coordinates": [ 22.83028, 58.78749 ] } },
{ "type": "Feature", "properties": { "site_id": 547, "name": "RIISI", "lon": 24.32193889, "lat": 59.12471944, "ONIMI": "Nissi vald", "OKOOD": "0518", "MNIMI": "Harju maakond", "MKOOD": "0037", "lau2": 518, "lon_cntr": 24.238200418800002, "lat_cntr": 59.108002385799999 }, "geometry": { "type": "Point", "coordinates": [ 24.32194, 59.12472 ] } },
{ "type": "Feature", "properties": { "site_id": 700, "name": "TURBA", "lon": 24.19810556, "lat": 59.06888889, "ONIMI": "Nissi vald", "OKOOD": "0518", "MNIMI": "Harju maakond", "MKOOD": "0037", "lau2": 518, "lon_cntr": 24.238200418800002, "lat_cntr": 59.108002385799999 }, "geometry": { "type": "Point", "coordinates": [ 24.19811, 59.06889 ] } },
{ "type": "Feature", "properties": { "site_id": 918, "name": "TUREE", "lon": 24.24166389, "lat": 59.07749722, "ONIMI": "Nissi vald", "OKOOD": "0518", "MNIMI": "Harju maakond", "MKOOD": "0037", "lau2": 518, "lon_cntr": 24.238200418800002, "lat_cntr": 59.108002385799999 }, "geometry": { "type": "Point", "coordinates": [ 24.24166, 59.0775 ] } },
{ "type": "Feature", "properties": { "site_id": 431, "name": "ONGU", "lon": 22.46455556, "lat": 58.84656667, "ONIMI": "Emmaste vald", "OKOOD": "0175", "MNIMI": "Hiiu maakond", "MKOOD": "0039", "lau2": 175, "lon_cntr": 22.559133535699999, "lat_cntr": 58.774715939899998 }, "geometry": { "type": "Point", "coordinates": [ 22.46456, 58.84657 ] } },
{ "type": "Feature", "properties": { "site_id": 71, "name": "EMMAS", "lon": 22.56666389, "lat": 58.71971389, "ONIMI": "Emmaste vald", "OKOOD": "0175", "MNIMI": "Hiiu maakond", "MKOOD": "0039", "lau2": 175, "lon_cntr": 22.559133535699999, "lat_cntr": 58.774715939899998 }, "geometry": { "type": "Point", "coordinates": [ 22.56666, 58.71971 ] } },
{ "type": "Feature", "properties": { "site_id": 1000, "name": "EMMAA", "lon": 22.59888889, "lat": 58.70416667, "ONIMI": "Emmaste vald", "OKOOD": "0175", "MNIMI": "Hiiu maakond", "MKOOD": "0039", "lau2": 175, "lon_cntr": 22.559133535699999, "lat_cntr": 58.774715939899998 }, "geometry": { "type": "Point", "coordinates": [ 22.59889, 58.70417 ] } },
{ "type": "Feature", "properties": { "site_id": 170, "name": "KALAN", "lon": 22.10861389, "lat": 58.921675, "ONIMI": "Kõrgessaare vald", "OKOOD": "0392", "MNIMI": "Hiiu maakond", "MKOOD": "0039", "lau2": 392, "lon_cntr": 22.481301867500001, "lat_cntr": 58.947931836599999 }, "geometry": { "type": "Point", "coordinates": [ 22.10861, 58.92168 ] } },
{ "type": "Feature", "properties": { "site_id": 219, "name": "KIDAS", "lon": 22.61999167, "lat": 59.00860556, "ONIMI": "Kõrgessaare vald", "OKOOD": "0392", "MNIMI": "Hiiu maakond", "MKOOD": "0039", "lau2": 392, "lon_cntr": 22.481301867500001, "lat_cntr": 58.947931836599999 }, "geometry": { "type": "Point", "coordinates": [ 22.61999, 59.00861 ] } },
{ "type": "Feature", "properties": { "site_id": 262, "name": "KOPU", "lon": 22.19805556, "lat": 58.91860833, "ONIMI": "Kõrgessaare vald", "OKOOD": "0392", "MNIMI": "Hiiu maakond", "MKOOD": "0039", "lau2": 392, "lon_cntr": 22.481301867500001, "lat_cntr": 58.947931836599999 }, "geometry": { "type": "Point", "coordinates": [ 22.19806, 58.91861 ] } },
{ "type": "Feature", "properties": { "site_id": 263, "name": "KORGE", "lon": 22.49471944, "lat": 58.97583056, "ONIMI": "Kõrgessaare vald", "OKOOD": "0392", "MNIMI": "Hiiu maakond", "MKOOD": "0039", "lau2": 392, "lon_cntr": 22.481301867500001, "lat_cntr": 58.947931836599999 }, "geometry": { "type": "Point", "coordinates": [ 22.49472, 58.97583 ] } },
{ "type": "Feature", "properties": { "site_id": 345, "name": "LUIDJ", "lon": 22.39555556, "lat": 58.92054444, "ONIMI": "Kõrgessaare vald", "OKOOD": "0392", "MNIMI": "Hiiu maakond", "MKOOD": "0039", "lau2": 392, "lon_cntr": 22.481301867500001, "lat_cntr": 58.947931836599999 }, "geometry": { "type": "Point", "coordinates": [ 22.39556, 58.92054 ] } },
{ "type": "Feature", "properties": { "site_id": 295, "name": "LAAGR", "lon": 24.60833056, "lat": 59.34916667, "ONIMI": "Saue vald", "OKOOD": "0727", "MNIMI": "Harju maakond", "MKOOD": "0037", "lau2": 727, "lon_cntr": 24.532281836399999, "lat_cntr": 59.286018620999997 }, "geometry": { "type": "Point", "coordinates": [ 24.60833, 59.34917 ] } },
{ "type": "Feature", "properties": { "site_id": 648, "name": "TAMRO", "lon": 24.62443889, "lat": 59.34583056, "ONIMI": "Saue vald", "OKOOD": "0727", "MNIMI": "Harju maakond", "MKOOD": "0037", "lau2": 727, "lon_cntr": 24.532281836399999, "lat_cntr": 59.286018620999997 }, "geometry": { "type": "Point", "coordinates": [ 24.62444, 59.34583 ] } },
{ "type": "Feature", "properties": { "site_id": 3, "name": "AASMA", "lon": 24.48944444, "lat": 59.24138889, "ONIMI": "Saue vald", "OKOOD": "0727", "MNIMI": "Harju maakond", "MKOOD": "0037", "lau2": 727, "lon_cntr": 24.532281836399999, "lat_cntr": 59.286018620999997 }, "geometry": { "type": "Point", "coordinates": [ 24.48944, 59.24139 ] } },
{ "type": "Feature", "properties": { "site_id": 222, "name": "KIIA", "lon": 24.49055556, "lat": 59.36244167, "ONIMI": "Saue vald", "OKOOD": "0727", "MNIMI": "Harju maakond", "MKOOD": "0037", "lau2": 727, "lon_cntr": 24.532281836399999, "lat_cntr": 59.286018620999997 }, "geometry": { "type": "Point", "coordinates": [ 24.49056, 59.36244 ] } },
{ "type": "Feature", "properties": { "site_id": 833, "name": "HYYRU", "lon": 24.55749167, "lat": 59.38360833, "ONIMI": "Saue vald", "OKOOD": "0727", "MNIMI": "Harju maakond", "MKOOD": "0037", "lau2": 727, "lon_cntr": 24.532281836399999, "lat_cntr": 59.286018620999997 }, "geometry": { "type": "Point", "coordinates": [ 24.55749, 59.38361 ] } },
{ "type": "Feature", "properties": { "site_id": 1047, "name": "BELEM", "lon": 24.54194444, "lat": 59.40666667, "ONIMI": "Saue vald", "OKOOD": "0727", "MNIMI": "Harju maakond", "MKOOD": "0037", "lau2": 727, "lon_cntr": 24.532281836399999, "lat_cntr": 59.286018620999997 }, "geometry": { "type": "Point", "coordinates": [ 24.54194, 59.40667 ] } },
{ "type": "Feature", "properties": { "site_id": 884, "name": "DSV", "lon": 24.62056389, "lat": 59.33944167, "ONIMI": "Saku vald", "OKOOD": "0718", "MNIMI": "Harju maakond", "MKOOD": "0037", "lau2": 718, "lon_cntr": 24.698865015599999, "lat_cntr": 59.283329275699998 }, "geometry": { "type": "Point", "coordinates": [ 24.62056, 59.33944 ] } },
{ "type": "Feature", "properties": { "site_id": 360, "name": "MANKY", "lon": 24.69150278, "lat": 59.33668889, "ONIMI": "Saku vald", "OKOOD": "0718", "MNIMI": "Harju maakond", "MKOOD": "0037", "lau2": 718, "lon_cntr": 24.698865015599999, "lat_cntr": 59.283329275699998 }, "geometry": { "type": "Point", "coordinates": [ 24.6915, 59.33669 ] } },
{ "type": "Feature", "properties": { "site_id": 923, "name": "YKSNU", "lon": 24.61555, "lat": 59.28444444, "ONIMI": "Saku vald", "OKOOD": "0718", "MNIMI": "Harju maakond", "MKOOD": "0037", "lau2": 718, "lon_cntr": 24.698865015599999, "lat_cntr": 59.283329275699998 }, "geometry": { "type": "Point", "coordinates": [ 24.61555, 59.28444 ] } },
{ "type": "Feature", "properties": { "site_id": 950, "name": "JOGIS", "lon": 24.53833333, "lat": 59.28416667, "ONIMI": "Saku vald", "OKOOD": "0718", "MNIMI": "Harju maakond", "MKOOD": "0037", "lau2": 718, "lon_cntr": 24.698865015599999, "lat_cntr": 59.283329275699998 }, "geometry": { "type": "Point", "coordinates": [ 24.53833, 59.28417 ] } },
{ "type": "Feature", "properties": { "site_id": 378, "name": "METSA", "lon": 24.66764167, "lat": 59.26639444, "ONIMI": "Saku vald", "OKOOD": "0718", "MNIMI": "Harju maakond", "MKOOD": "0037", "lau2": 718, "lon_cntr": 24.698865015599999, "lat_cntr": 59.283329275699998 }, "geometry": { "type": "Point", "coordinates": [ 24.66764, 59.26639 ] } },
{ "type": "Feature", "properties": { "site_id": 585, "name": "SAKU", "lon": 24.66805278, "lat": 59.30110833, "ONIMI": "Saku vald", "OKOOD": "0718", "MNIMI": "Harju maakond", "MKOOD": "0037", "lau2": 718, "lon_cntr": 24.698865015599999, "lat_cntr": 59.283329275699998 }, "geometry": { "type": "Point", "coordinates": [ 24.66805, 59.30111 ] } },
{ "type": "Feature", "properties": { "site_id": 855, "name": "KASUL", "lon": 24.68583056, "lat": 59.23860833, "ONIMI": "Saku vald", "OKOOD": "0718", "MNIMI": "Harju maakond", "MKOOD": "0037", "lau2": 718, "lon_cntr": 24.698865015599999, "lat_cntr": 59.283329275699998 }, "geometry": { "type": "Point", "coordinates": [ 24.68583, 59.23861 ] } },
{ "type": "Feature", "properties": { "site_id": 989, "name": "TODVA", "lon": 24.739479, "lat": 59.282377, "ONIMI": "Saku vald", "OKOOD": "0718", "MNIMI": "Harju maakond", "MKOOD": "0037", "lau2": 718, "lon_cntr": 24.698865015599999, "lat_cntr": 59.283329275699998 }, "geometry": { "type": "Point", "coordinates": [ 24.73948, 59.28238 ] } },
{ "type": "Feature", "properties": { "site_id": 205, "name": "KEHRA", "lon": 25.3236, "lat": 59.33555556, "ONIMI": "Anija vald", "OKOOD": "0140", "MNIMI": "Harju maakond", "MKOOD": "0037", "lau2": 140, "lon_cntr": 25.455810480099998, "lat_cntr": 59.310752469400001 }, "geometry": { "type": "Point", "coordinates": [ 25.3236, 59.33556 ] } },
{ "type": "Feature", "properties": { "site_id": 616, "name": "SOODL", "lon": 25.42670278, "lat": 59.37182222, "ONIMI": "Anija vald", "OKOOD": "0140", "MNIMI": "Harju maakond", "MKOOD": "0037", "lau2": 140, "lon_cntr": 25.455810480099998, "lat_cntr": 59.310752469400001 }, "geometry": { "type": "Point", "coordinates": [ 25.4267, 59.37182 ] } },
{ "type": "Feature", "properties": { "site_id": 485, "name": "PILLA", "lon": 25.57097778, "lat": 59.35984167, "ONIMI": "Anija vald", "OKOOD": "0140", "MNIMI": "Harju maakond", "MKOOD": "0037", "lau2": 140, "lon_cntr": 25.455810480099998, "lat_cntr": 59.310752469400001 }, "geometry": { "type": "Point", "coordinates": [ 25.57098, 59.35984 ] } },
{ "type": "Feature", "properties": { "site_id": 17, "name": "ALAVE", "lon": 25.33424722, "lat": 59.25387778, "ONIMI": "Anija vald", "OKOOD": "0140", "MNIMI": "Harju maakond", "MKOOD": "0037", "lau2": 140, "lon_cntr": 25.455810480099998, "lat_cntr": 59.310752469400001 }, "geometry": { "type": "Point", "coordinates": [ 25.33425, 59.25388 ] } },
{ "type": "Feature", "properties": { "site_id": 741, "name": "VARST", "lon": 26.66723056, "lat": 57.64305833, "ONIMI": "Varstu vald", "OKOOD": "0865", "MNIMI": "Võru maakond", "MKOOD": "0086", "lau2": 865, "lon_cntr": 26.72668232, "lat_cntr": 57.645156454499997 }, "geometry": { "type": "Point", "coordinates": [ 26.66723, 57.64306 ] } },
{ "type": "Feature", "properties": { "site_id": 218, "name": "KERNU", "lon": 24.49971389, "lat": 59.13693889, "ONIMI": "Kernu vald", "OKOOD": "0297", "MNIMI": "Harju maakond", "MKOOD": "0037", "lau2": 297, "lon_cntr": 24.431404457500001, "lat_cntr": 59.168999262699998 }, "geometry": { "type": "Point", "coordinates": [ 24.49971, 59.13694 ] } },
{ "type": "Feature", "properties": { "site_id": 305, "name": "LAITS", "lon": 24.37583056, "lat": 59.19389167, "ONIMI": "Kernu vald", "OKOOD": "0297", "MNIMI": "Harju maakond", "MKOOD": "0037", "lau2": 297, "lon_cntr": 24.431404457500001, "lat_cntr": 59.168999262699998 }, "geometry": { "type": "Point", "coordinates": [ 24.37583, 59.19389 ] } },
{ "type": "Feature", "properties": { "site_id": 419, "name": "NOARO", "lon": 23.48110833, "lat": 59.02943889, "ONIMI": "Noarootsi vald", "OKOOD": "0520", "MNIMI": "Lääne maakond", "MKOOD": "0057", "lau2": 520, "lon_cntr": 23.581743476100002, "lat_cntr": 59.097118712399997 }, "geometry": { "type": "Point", "coordinates": [ 23.48111, 59.02944 ] } },
{ "type": "Feature", "properties": { "site_id": 698, "name": "TUKSI", "lon": 23.53166667, "lat": 59.16833056, "ONIMI": "Noarootsi vald", "OKOOD": "0520", "MNIMI": "Lääne maakond", "MKOOD": "0057", "lau2": 520, "lon_cntr": 23.581743476100002, "lat_cntr": 59.097118712399997 }, "geometry": { "type": "Point", "coordinates": [ 23.53167, 59.16833 ] } },
{ "type": "Feature", "properties": { "site_id": 982, "name": "SUTLE", "lon": 23.59777778, "lat": 59.06111111, "ONIMI": "Noarootsi vald", "OKOOD": "0520", "MNIMI": "Lääne maakond", "MKOOD": "0057", "lau2": 520, "lon_cntr": 23.581743476100002, "lat_cntr": 59.097118712399997 }, "geometry": { "type": "Point", "coordinates": [ 23.59778, 59.06111 ] } },
{ "type": "Feature", "properties": { "site_id": 750, "name": "VERGI", "lon": 26.09999444, "lat": 59.60055556, "ONIMI": "Vihula vald", "OKOOD": "0887", "MNIMI": "Lääne-Viru maakond", "MKOOD": "0059", "lau2": 887, "lon_cntr": 26.0851333592, "lat_cntr": 59.539346070800001 }, "geometry": { "type": "Point", "coordinates": [ 26.09999, 59.60056 ] } },
{ "type": "Feature", "properties": { "site_id": 792, "name": "VOSU", "lon": 25.98138333, "lat": 59.57944167, "ONIMI": "Vihula vald", "OKOOD": "0887", "MNIMI": "Lääne-Viru maakond", "MKOOD": "0059", "lau2": 887, "lon_cntr": 26.0851333592, "lat_cntr": 59.539346070800001 }, "geometry": { "type": "Point", "coordinates": [ 25.98138, 59.57944 ] } },
{ "type": "Feature", "properties": { "site_id": 65, "name": "EISMA", "lon": 26.28555556, "lat": 59.55888889, "ONIMI": "Vihula vald", "OKOOD": "0887", "MNIMI": "Lääne-Viru maakond", "MKOOD": "0059", "lau2": 887, "lon_cntr": 26.0851333592, "lat_cntr": 59.539346070800001 }, "geometry": { "type": "Point", "coordinates": [ 26.28556, 59.55889 ] } },
{ "type": "Feature", "properties": { "site_id": 181, "name": "KAREP", "lon": 26.36736667, "lat": 59.54013056, "ONIMI": "Vihula vald", "OKOOD": "0887", "MNIMI": "Lääne-Viru maakond", "MKOOD": "0059", "lau2": 887, "lon_cntr": 26.0851333592, "lat_cntr": 59.539346070800001 }, "geometry": { "type": "Point", "coordinates": [ 26.36737, 59.54013 ] } },
{ "type": "Feature", "properties": { "site_id": 754, "name": "VIHUQ", "lon": 26.12945556, "lat": 59.54683056, "ONIMI": "Vihula vald", "OKOOD": "0887", "MNIMI": "Lääne-Viru maakond", "MKOOD": "0059", "lau2": 887, "lon_cntr": 26.0851333592, "lat_cntr": 59.539346070800001 }, "geometry": { "type": "Point", "coordinates": [ 26.12946, 59.54683 ] } },
{ "type": "Feature", "properties": { "site_id": 852, "name": "ESSU", "lon": 26.36973056, "lat": 59.42416389, "ONIMI": "Haljala vald", "OKOOD": "0190", "MNIMI": "Lääne-Viru maakond", "MKOOD": "0059", "lau2": 190, "lon_cntr": 26.2476508743, "lat_cntr": 59.449262468299999 }, "geometry": { "type": "Point", "coordinates": [ 26.36973, 59.42416 ] } },
{ "type": "Feature", "properties": { "site_id": 106, "name": "HALJA", "lon": 26.22888333, "lat": 59.45555278, "ONIMI": "Haljala vald", "OKOOD": "0190", "MNIMI": "Lääne-Viru maakond", "MKOOD": "0059", "lau2": 190, "lon_cntr": 26.2476508743, "lat_cntr": 59.449262468299999 }, "geometry": { "type": "Point", "coordinates": [ 26.22888, 59.45555 ] } },
{ "type": "Feature", "properties": { "site_id": 107, "name": "HALSO", "lon": 26.27055556, "lat": 59.42805556, "ONIMI": "Haljala vald", "OKOOD": "0190", "MNIMI": "Lääne-Viru maakond", "MKOOD": "0059", "lau2": 190, "lon_cntr": 26.2476508743, "lat_cntr": 59.449262468299999 }, "geometry": { "type": "Point", "coordinates": [ 26.27056, 59.42806 ] } },
{ "type": "Feature", "properties": { "site_id": 1025, "name": "AASPE", "lon": 26.1325, "lat": 59.44138889, "ONIMI": "Haljala vald", "OKOOD": "0190", "MNIMI": "Lääne-Viru maakond", "MKOOD": "0059", "lau2": 190, "lon_cntr": 26.2476508743, "lat_cntr": 59.449262468299999 }, "geometry": { "type": "Point", "coordinates": [ 26.1325, 59.44139 ] } },
{ "type": "Feature", "properties": { "site_id": 651, "name": "TAPA", "lon": 25.98776667, "lat": 59.25971944, "ONIMI": "Tapa vald", "OKOOD": "0790", "MNIMI": "Lääne-Viru maakond", "MKOOD": "0059", "lau2": 790, "lon_cntr": 25.866957797600001, "lat_cntr": 59.2416944868 }, "geometry": { "type": "Point", "coordinates": [ 25.98777, 59.25972 ] } },
{ "type": "Feature", "properties": { "site_id": 652, "name": "TAPAK", "lon": 25.96499444, "lat": 59.26110556, "ONIMI": "Tapa vald", "OKOOD": "0790", "MNIMI": "Lääne-Viru maakond", "MKOOD": "0059", "lau2": 790, "lon_cntr": 25.866957797600001, "lat_cntr": 59.2416944868 }, "geometry": { "type": "Point", "coordinates": [ 25.96499, 59.26111 ] } },
{ "type": "Feature", "properties": { "site_id": 985, "name": "TAPKV", "lon": 25.95333333, "lat": 59.245, "ONIMI": "Tapa vald", "OKOOD": "0790", "MNIMI": "Lääne-Viru maakond", "MKOOD": "0059", "lau2": 790, "lon_cntr": 25.866957797600001, "lat_cntr": 59.2416944868 }, "geometry": { "type": "Point", "coordinates": [ 25.95333, 59.245 ] } },
{ "type": "Feature", "properties": { "site_id": 313, "name": "LEHTM", "lon": 25.64166389, "lat": 59.22777222, "ONIMI": "Tapa vald", "OKOOD": "0790", "MNIMI": "Lääne-Viru maakond", "MKOOD": "0059", "lau2": 790, "lon_cntr": 25.866957797600001, "lat_cntr": 59.2416944868 }, "geometry": { "type": "Point", "coordinates": [ 25.64166, 59.22777 ] } },
{ "type": "Feature", "properties": { "site_id": 314, "name": "LEHTS", "lon": 25.82774444, "lat": 59.24911389, "ONIMI": "Tapa vald", "OKOOD": "0790", "MNIMI": "Lääne-Viru maakond", "MKOOD": "0059", "lau2": 790, "lon_cntr": 25.866957797600001, "lat_cntr": 59.2416944868 }, "geometry": { "type": "Point", "coordinates": [ 25.82774, 59.24911 ] } },
{ "type": "Feature", "properties": { "site_id": 1014, "name": "JMOIS", "lon": 25.68277778, "lat": 59.24388889, "ONIMI": "Tapa vald", "OKOOD": "0790", "MNIMI": "Lääne-Viru maakond", "MKOOD": "0059", "lau2": 790, "lon_cntr": 25.866957797600001, "lat_cntr": 59.2416944868 }, "geometry": { "type": "Point", "coordinates": [ 25.68278, 59.24389 ] } },
{ "type": "Feature", "properties": { "site_id": 530, "name": "RAKEQ", "lon": 26.26055556, "lat": 58.97472222, "ONIMI": "Rakke vald", "OKOOD": "0660", "MNIMI": "Lääne-Viru maakond", "MKOOD": "0059", "lau2": 660, "lon_cntr": 26.2695204553, "lat_cntr": 58.959519993299999 }, "geometry": { "type": "Point", "coordinates": [ 26.26056, 58.97472 ] } },
{ "type": "Feature", "properties": { "site_id": 74, "name": "EMU", "lon": 26.37055833, "lat": 58.94471667, "ONIMI": "Rakke vald", "OKOOD": "0660", "MNIMI": "Lääne-Viru maakond", "MKOOD": "0059", "lau2": 660, "lon_cntr": 26.2695204553, "lat_cntr": 58.959519993299999 }, "geometry": { "type": "Point", "coordinates": [ 26.37056, 58.94472 ] } },
{ "type": "Feature", "properties": { "site_id": 190, "name": "KARU", "lon": 23.89361667, "lat": 58.54721667, "ONIMI": "Varbla vald", "OKOOD": "0863", "MNIMI": "Pärnu maakond", "MKOOD": "0067", "lau2": 863, "lon_cntr": 23.8129851148, "lat_cntr": 58.458479959899996 }, "geometry": { "type": "Point", "coordinates": [ 23.89362, 58.54722 ] } },
{ "type": "Feature", "properties": { "site_id": 735, "name": "VARBL", "lon": 23.72055278, "lat": 58.44277222, "ONIMI": "Varbla vald", "OKOOD": "0863", "MNIMI": "Pärnu maakond", "MKOOD": "0067", "lau2": 863, "lon_cntr": 23.8129851148, "lat_cntr": 58.458479959899996 }, "geometry": { "type": "Point", "coordinates": [ 23.72055, 58.44277 ] } },
{ "type": "Feature", "properties": { "site_id": 1028, "name": "PARLS", "lon": 23.74472222, "lat": 58.37388889, "ONIMI": "Varbla vald", "OKOOD": "0863", "MNIMI": "Pärnu maakond", "MKOOD": "0067", "lau2": 863, "lon_cntr": 23.8129851148, "lat_cntr": 58.458479959899996 }, "geometry": { "type": "Point", "coordinates": [ 23.74472, 58.37389 ] } },
{ "type": "Feature", "properties": { "site_id": 298, "name": "LAEKV", "lon": 26.51999722, "lat": 59.07610833, "ONIMI": "Laekvere vald", "OKOOD": "0381", "MNIMI": "Lääne-Viru maakond", "MKOOD": "0059", "lau2": 381, "lon_cntr": 26.639972037500002, "lat_cntr": 59.057033536399999 }, "geometry": { "type": "Point", "coordinates": [ 26.52, 59.07611 ] } },
{ "type": "Feature", "properties": { "site_id": 997, "name": "VENEV", "lon": 26.70611111, "lat": 59.00944444, "ONIMI": "Laekvere vald", "OKOOD": "0381", "MNIMI": "Lääne-Viru maakond", "MKOOD": "0059", "lau2": 381, "lon_cntr": 26.639972037500002, "lat_cntr": 59.057033536399999 }, "geometry": { "type": "Point", "coordinates": [ 26.70611, 59.00944 ] } },
{ "type": "Feature", "properties": { "site_id": 185, "name": "KARIT", "lon": 26.30890556, "lat": 59.28963333, "ONIMI": "Rakvere vald", "OKOOD": "0662", "MNIMI": "Lääne-Viru maakond", "MKOOD": "0059", "lau2": 662, "lon_cntr": 26.2850498494, "lat_cntr": 59.322245611699998 }, "geometry": { "type": "Point", "coordinates": [ 26.30891, 59.28963 ] } },
{ "type": "Feature", "properties": { "site_id": 320, "name": "LEPNA", "lon": 26.31625278, "lat": 59.33546667, "ONIMI": "Rakvere vald", "OKOOD": "0662", "MNIMI": "Lääne-Viru maakond", "MKOOD": "0059", "lau2": 662, "lon_cntr": 26.2850498494, "lat_cntr": 59.322245611699998 }, "geometry": { "type": "Point", "coordinates": [ 26.31625, 59.33547 ] } },
{ "type": "Feature", "properties": { "site_id": 973, "name": "RARAK", "lon": 26.33833333, "lat": 59.36555556, "ONIMI": "Rakvere vald", "OKOOD": "0662", "MNIMI": "Lääne-Viru maakond", "MKOOD": "0059", "lau2": 662, "lon_cntr": 26.2850498494, "lat_cntr": 59.322245611699998 }, "geometry": { "type": "Point", "coordinates": [ 26.33833, 59.36556 ] } },
{ "type": "Feature", "properties": { "site_id": 1045, "name": "LEPNR", "lon": 26.29055556, "lat": 59.33194444, "ONIMI": "Rakvere vald", "OKOOD": "0662", "MNIMI": "Lääne-Viru maakond", "MKOOD": "0059", "lau2": 662, "lon_cntr": 26.2850498494, "lat_cntr": 59.322245611699998 }, "geometry": { "type": "Point", "coordinates": [ 26.29056, 59.33194 ] } },
{ "type": "Feature", "properties": { "site_id": 7, "name": "AHAST", "lon": 24.1218, "lat": 58.50170833, "ONIMI": "Audru vald", "OKOOD": "0159", "MNIMI": "Pärnu maakond", "MKOOD": "0067", "lau2": 159, "lon_cntr": 24.225185542199998, "lat_cntr": 58.425561502100003 }, "geometry": { "type": "Point", "coordinates": [ 24.1218, 58.50171 ] } },
{ "type": "Feature", "properties": { "site_id": 41, "name": "AUDRU", "lon": 24.31027222, "lat": 58.41639167, "ONIMI": "Audru vald", "OKOOD": "0159", "MNIMI": "Pärnu maakond", "MKOOD": "0067", "lau2": 159, "lon_cntr": 24.225185542199998, "lat_cntr": 58.425561502100003 }, "geometry": { "type": "Point", "coordinates": [ 24.31027, 58.41639 ] } },
{ "type": "Feature", "properties": { "site_id": 951, "name": "JOOPR", "lon": 24.32333333, "lat": 58.47277778, "ONIMI": "Audru vald", "OKOOD": "0159", "MNIMI": "Pärnu maakond", "MKOOD": "0067", "lau2": 159, "lon_cntr": 24.225185542199998, "lat_cntr": 58.425561502100003 }, "geometry": { "type": "Point", "coordinates": [ 24.32333, 58.47278 ] } },
{ "type": "Feature", "properties": { "site_id": 40, "name": "AUDKO", "lon": 24.35555556, "lat": 58.41028056, "ONIMI": "Audru vald", "OKOOD": "0159", "MNIMI": "Pärnu maakond", "MKOOD": "0067", "lau2": 159, "lon_cntr": 24.225185542199998, "lat_cntr": 58.425561502100003 }, "geometry": { "type": "Point", "coordinates": [ 24.35556, 58.41028 ] } },
{ "type": "Feature", "properties": { "site_id": 825, "name": "ULLAS", "lon": 24.43886667, "lat": 58.42438889, "ONIMI": "Audru vald", "OKOOD": "0159", "MNIMI": "Pärnu maakond", "MKOOD": "0067", "lau2": 159, "lon_cntr": 24.225185542199998, "lat_cntr": 58.425561502100003 }, "geometry": { "type": "Point", "coordinates": [ 24.43887, 58.42439 ] } },
{ "type": "Feature", "properties": { "site_id": 1004, "name": "MMETS", "lon": 24.41333333, "lat": 58.39583333, "ONIMI": "Audru vald", "OKOOD": "0159", "MNIMI": "Pärnu maakond", "MKOOD": "0067", "lau2": 159, "lon_cntr": 24.225185542199998, "lat_cntr": 58.425561502100003 }, "geometry": { "type": "Point", "coordinates": [ 24.41333, 58.39583 ] } },
{ "type": "Feature", "properties": { "site_id": 161, "name": "KABRI", "lon": 24.24776667, "lat": 58.32666667, "ONIMI": "Audru vald", "OKOOD": "0159", "MNIMI": "Pärnu maakond", "MKOOD": "0067", "lau2": 159, "lon_cntr": 24.225185542199998, "lat_cntr": 58.425561502100003 }, "geometry": { "type": "Point", "coordinates": [ 24.24777, 58.32667 ] } },
{ "type": "Feature", "properties": { "site_id": 682, "name": "TOOTS", "lon": 24.78744167, "lat": 58.5865, "ONIMI": "Tootsi vald", "OKOOD": "0805", "MNIMI": "Pärnu maakond", "MKOOD": "0067", "lau2": 805, "lon_cntr": 24.792600225699999, "lat_cntr": 58.577637706200001 }, "geometry": { "type": "Point", "coordinates": [ 24.78744, 58.5865 ] } },
{ "type": "Feature", "properties": { "site_id": 310, "name": "LAVAS", "lon": 24.37448333, "lat": 58.51358333, "ONIMI": "Lavassaare vald", "OKOOD": "0395", "MNIMI": "Pärnu maakond", "MKOOD": "0067", "lau2": 395, "lon_cntr": 24.376030370100001, "lat_cntr": 58.506742021299999 }, "geometry": { "type": "Point", "coordinates": [ 24.37448, 58.51358 ] } },
{ "type": "Feature", "properties": { "site_id": 101, "name": "HAADE", "lon": 24.50887222, "lat": 58.08055556, "ONIMI": "Häädemeeste vald", "OKOOD": "0213", "MNIMI": "Pärnu maakond", "MKOOD": "0067", "lau2": 213, "lon_cntr": 24.552800250499999, "lat_cntr": 58.034531015399999 }, "geometry": { "type": "Point", "coordinates": [ 24.50887, 58.08056 ] } },
{ "type": "Feature", "properties": { "site_id": 131, "name": "IKLA", "lon": 24.38277222, "lat": 57.87666667, "ONIMI": "Häädemeeste vald", "OKOOD": "0213", "MNIMI": "Pärnu maakond", "MKOOD": "0067", "lau2": 213, "lon_cntr": 24.552800250499999, "lat_cntr": 58.034531015399999 }, "geometry": { "type": "Point", "coordinates": [ 24.38277, 57.87667 ] } },
{ "type": "Feature", "properties": { "site_id": 160, "name": "KABLI", "lon": 24.44613056, "lat": 57.99744167, "ONIMI": "Häädemeeste vald", "OKOOD": "0213", "MNIMI": "Pärnu maakond", "MKOOD": "0067", "lau2": 213, "lon_cntr": 24.552800250499999, "lat_cntr": 58.034531015399999 }, "geometry": { "type": "Point", "coordinates": [ 24.44613, 57.99744 ] } },
{ "type": "Feature", "properties": { "site_id": 991, "name": "TREIM", "lon": 24.385, "lat": 57.91916667, "ONIMI": "Häädemeeste vald", "OKOOD": "0213", "MNIMI": "Pärnu maakond", "MKOOD": "0067", "lau2": 213, "lon_cntr": 24.552800250499999, "lat_cntr": 58.034531015399999 }, "geometry": { "type": "Point", "coordinates": [ 24.385, 57.91917 ] } },
{ "type": "Feature", "properties": { "site_id": 21, "name": "AMBLA", "lon": 25.84333333, "lat": 59.19166389, "ONIMI": "Ambla vald", "OKOOD": "0134", "MNIMI": "Järva maakond", "MKOOD": "0051", "lau2": 134, "lon_cntr": 25.8359720061, "lat_cntr": 59.161694160099998 }, "geometry": { "type": "Point", "coordinates": [ 25.84333, 59.19166 ] } },
{ "type": "Feature", "properties": { "site_id": 27, "name": "ARAVE", "lon": 25.75971944, "lat": 59.14472778, "ONIMI": "Ambla vald", "OKOOD": "0134", "MNIMI": "Järva maakond", "MKOOD": "0051", "lau2": 134, "lon_cntr": 25.8359720061, "lat_cntr": 59.161694160099998 }, "geometry": { "type": "Point", "coordinates": [ 25.75972, 59.14473 ] } },
{ "type": "Feature", "properties": { "site_id": 827, "name": "REINE", "lon": 25.96360556, "lat": 59.16416667, "ONIMI": "Ambla vald", "OKOOD": "0134", "MNIMI": "Järva maakond", "MKOOD": "0051", "lau2": 134, "lon_cntr": 25.8359720061, "lat_cntr": 59.161694160099998 }, "geometry": { "type": "Point", "coordinates": [ 25.96361, 59.16417 ] } },
{ "type": "Feature", "properties": { "site_id": 301, "name": "LAHTE", "lon": 26.67471389, "lat": 58.48054722, "ONIMI": "Tartu vald", "OKOOD": "0794", "MNIMI": "Tartu maakond", "MKOOD": "0078", "lau2": 794, "lon_cntr": 26.7415817031, "lat_cntr": 58.477247363300002 }, "geometry": { "type": "Point", "coordinates": [ 26.67471, 58.48055 ] } },
{ "type": "Feature", "properties": { "site_id": 748, "name": "VEDU", "lon": 26.76807778, "lat": 58.50228056, "ONIMI": "Tartu vald", "OKOOD": "0794", "MNIMI": "Tartu maakond", "MKOOD": "0078", "lau2": 794, "lon_cntr": 26.7415817031, "lat_cntr": 58.477247363300002 }, "geometry": { "type": "Point", "coordinates": [ 26.76808, 58.50228 ] } },